Hospital Number,State,Hospname,Wait Time,Establishment ID,Parent Id,State Average wait time,Unit,Medicare Prov Number,Address Line 1,Address Line 2,Latitude,Longitude,Australia,Full Address,Remoteness area (code),Remoteness area,Number of available beds,2012-13 Peer Group code,2012-13 Peer Group Name,Admissions reported,Emergency department,Elective surgery reported,Outpatient clinics,2011-12 Peer Group code,2011-12 Peer Group Name,Hospital Group
2,ACT,Calvary Public Hospital,44,810000083,,Y,Hospital,0090040A,Haydon DR,Bruce 2617,-35.242533,149.090413,Australia,Haydon DR Bruce 2617 ACT Australia,0,Major Cities,235,L,Large public acute,Yes,Yes,Yes,Yes,A1,Principal referral,LG
1,ACT,Canberra Hospital & Health Services,44,810000082,,Y,Hospital,0090030B,Yamba Dr,Garran 2605,-35.346756,149.099645,Australia,Yamba Dr Garran 2605 ACT Australia,0,Major Cities,741,PR,Principal referral,Yes,Yes,Yes,Yes,A1,Principal referral,PR
3,ACT,QEII Family Centre,44,810000084,,Y,Hospital,0090020F,129 Carruthers ST,Curtin 2605,-35.32357,149.078827,Australia,129 Carruthers ST Curtin 2605 ACT Australia,0,Major Cities,10,O1,Early parenting centres,No,No,No,No,E5,Mothercraft,WC
67,NSW,Armidale,18.75,1180J2010,,N,Hospital,0010570T,226 Rusden ST,Armidale 2350,-30.512011,151.654617,Australia,226 Rusden ST Armidale 2350 NSW Australia,1,Inner Regional,91.9,M,Medium public acute,Yes,Yes,Yes,No,C1,Medium (group 1),LG
43,NSW,Auburn,21.75,1174D2010,,N,Hospital,0010020A,18-20 Hargrave RD,Auburn 2144,-33.860931,151.032578,Australia,18-20 Hargrave RD Auburn 2144 NSW Australia,0,Major Cities,123.9,M,Medium public acute,Yes,Yes,Yes,Yes,B1,Large Major cities,LG
105,NSW,Ballina,19.75,1181H2010,,N,Hospital,0010580L,78-92 Cherry ST,Ballina 2478,-28.863291,153.564453,Australia,78-92 Cherry ST Ballina 2478 NSW Australia,1,Inner Regional,68.8,S1,Small public acute with surgery/obstetrics,Yes,Yes,Yes,No,C2,Medium (group 2),SM
21,NSW,Bankstown/ Lidcombe,18.75,1171D2270,,N,Hospital,0010040X,68 Eldridge RD,Bankstown 2200,-33.932171,151.020477,Australia,68 Eldridge RD Bankstown 2200 NSW Australia,0,Major Cities,392.5,L,Large public acute,Yes,Yes,Yes,Yes,A1,Principal referral,LG
128,NSW,Batemans Bay,23,1183N2010,,N,Hospital,0010640W,7 Pacific ST,Batemans Bay 2536,-35.714039,150.182755,Australia,7 Pacific ST Batemans Bay 2536 NSW Australia,1,Inner Regional,38.9,S1,Small public acute with surgery/obstetrics,Yes,Yes,Yes,No,C2,Medium (group 2),SM
197,NSW,Bathurst,10.5,1185L2010,,N,Hospital,0010650T,361 Howick ST,Bathurst 2795,-33.414941,149.579224,Australia,361 Howick ST Bathurst 2795 NSW Australia,1,Inner Regional,115.4,L,Large public acute,Yes,Yes,Yes,Yes,B2,Large regional and remote,LG
129,NSW,Bega,23.5,1183N2020,,N,Hospital,0010670K,1 McKee DR,Bega 2550,-36.681306,149.838068,Australia,1 McKee DR Bega 2550 NSW Australia,2,Outer Regional,70.1,M,Medium public acute,Yes,Yes,Yes,No,C1,Medium (group 1),LG
99,NSW,Belmont,18.75,1180Q2140,,N,Hospital,0012550B,16 Croudace Bay RD,Belmont 2280,-33.016431,151.645961,Australia,16 Croudace Bay RD Belmont 2280 NSW Australia,0,Major Cities,98.6,M,Medium public acute,Yes,Yes,Yes,No,C1,Medium (group 1),LG
44,NSW,Blacktown,18.5,1174D2030,,N,Hospital,0012490Y,44 Blacktown RD,Blacktown 2148,-33.778217,150.920017,Australia,44 Blacktown RD Blacktown 2148 NSW Australia,0,Major Cities,336.8,L,Large public acute,Yes,Yes,Yes,Yes,A1,Principal referral,LG
47,NSW,Blue Mountains,21,1175D2040,,N,Hospital,0010730T,Lot 3 Woodlands RD,Katoomba 2780,-33.704419,150.320766,Australia,Lot 3 Woodlands RD Katoomba 2780 NSW Australia,0,Major Cities,92.9,S1,Small public acute with surgery/obstetrics,Yes,Yes,Yes,No,C2,Medium (group 2),SM
23,NSW,Bowral,23,1171N2190,,N,Hospital,0010690H,Lot 3 Mona RD,Bowral 2576,-34.484995,150.424612,Australia,Lot 3 Mona RD Bowral 2576 NSW Australia,1,Inner Regional,70.8,M,Medium public acute,Yes,Yes,Yes,No,C1,Medium (group 1),LG
218,NSW,Broken Hill,26.25,1186S2010,,N,Hospital,0010830K,176 Thomas ST,Broken Hill 2880,-31.947395,141.456696,Australia,176 Thomas ST Broken Hill 2880 NSW Australia,2,Outer Regional,95.8,M,Medium public acute,Yes,Yes,Yes,No,C1,Medium (group 1),LG
33,NSW,Bulli,15,1173P2020,,N,Hospital,0010850H,33A Hospital RD,Bulli 2516,-34.33617,150.906448,Australia,33A Hospital RD Bulli 2516 NSW Australia,0,Major Cities,56.3,S1,Small public acute with surgery/obstetrics,Yes,Yes,Yes,No,D2,Small non-acute,SM
98,NSW,Calvary Mater Newcastle,19.5,1180Q2110,,N,Hospital,0011870W,4 Edith ST,Waratah 2298,-32.902822,151.720595,Australia,4 Edith ST Waratah 2298 NSW Australia,0,Major Cities,178,L,Large public acute,Yes,Yes,Yes,Yes,B1,Large Major cities,LG
17,NSW,Camden,11.75,1171D2050,,N,Hospital,0010870B,65 Menangle RD,Camden 2570,-34.061754,150.694805,Australia,65 Menangle RD Camden 2570 NSW Australia,0,Major Cities,56.7,S2,Other small public acute,Yes,Yes,No,No,D2,Small non-acute,SM
20,NSW,Campbelltown,21,1171D2150,,N,Hospital,0012750W,1 Therry RD,Campbelltown 2560,-34.079931,150.802561,Australia,1 Therry RD Campbelltown 2560 NSW Australia,0,Major Cities,334.7,L,Large public acute,Yes,Yes,Yes,Yes,A1,Principal referral,LG
11,NSW,Canterbury,21.25,1170A2020,,N,Hospital,0010090J,575 Canterbury RD,Campsie 2194,-33.918168,151.104594,Australia,575 Canterbury RD Campsie 2194 NSW Australia,0,Major Cities,172.4,M,Medium public acute,Yes,Yes,Yes,Yes,B1,Large Major cities,LG
108,NSW,Casino,20.5,1181H2060,,N,Hospital,0010920J,1 Hotham ST,Casino 2470,-28.84024,153.040131,Australia,1 Hotham ST Casino 2470 NSW Australia,1,Inner Regional,29.1,S1,Small public acute with surgery/obstetrics,Yes,Yes,Yes,No,C2,Medium (group 2),SM
91,NSW,Cessnock,28.25,1180Q2020,,N,Hospital,0010940F,Lot 1 View ST,Cessnock 2325,-32.827461,151.351593,Australia,Lot 1 View ST Cessnock 2325 NSW Australia,1,Inner Regional,50,S1,Small public acute with surgery/obstetrics,Yes,Yes,Yes,No,C2,Medium (group 2),SM
5,NSW,Children's Hospital Westmead,32.75,1163A2070,,N,Hospital,0010300T,178 Hawkesbury RD,Westmead 2145,-33.8027134,150.9920812,Australia,178 Hawkesbury RD Westmead 2145 NSW Australia,0,Major Cities,280.8,W3,Childrens,Yes,Yes,Yes,Yes,A2,Specialist womens and childrens,WC
122,NSW,Coffs Harbour,14.75,1182H2080,,N,Hospital,0010960A,345 Pacific HWY,Coffs Harbour 2450,-30.3149682,153.0921162,Australia,345 Pacific HWY Coffs Harbour 2450 NSW Australia,1,Inner Regional,254,L,Large public acute,Yes,Yes,Yes,Yes,A1,Principal referral,LG
14,NSW,Concord,19.5,1170A2370,,N,Hospital,0012720A,1a Hospital RD,Concord West 2138,-33.837299,151.090942,Australia,1a Hospital RD Concord West 2138 NSW Australia,0,Major Cities,663.7,PR,Principal referral,Yes,Yes,Yes,Yes,A1,Principal referral,PR
147,NSW,Deniliquin,3.75,1184M2070,,N,Hospital,0011150F,411 Charlotte ST,Deniliquin 2710,-35.5243441,144.9623537,Australia,411 Charlotte ST Deniliquin 2710 NSW Australia,1,Inner Regional,44.2,S1,Small public acute with surgery/obstetrics,Yes,No,Yes,No,C2,Medium (group 2),SM
183,NSW,Dubbo,17.75,1185K2110,,N,Hospital,0011170A,1 Myall ST,Dubbo 2830,-32.241249,148.615845,Australia,1 Myall ST Dubbo 2830 NSW Australia,1,Inner Regional,159.3,L,Large public acute,Yes,Yes,Yes,Yes,A1,Principal referral,LG
18,NSW,Fairfield,19,1171D2060,,N,Hospital,0010110Y,360 Prairie Vale RD,Prairiewood 2176,-33.8599379,150.902548,Australia,360 Prairie Vale RD Prairiewood 2176 NSW Australia,0,Major Cities,208,M,Medium public acute,Yes,Yes,Yes,Yes,B1,Large Major cities,LG
63,NSW,Gosford,26.75,1177B2020,,N,Hospital,0011270X,76 Holden ST,Gosford 2250,-33.421392,151.340527,Australia,76 Holden ST Gosford 2250 NSW Australia,0,Major Cities,478.3,L,Large public acute,Yes,Yes,Yes,Yes,A1,Principal referral,LG
110,NSW,Grafton,23.75,1181H2100,,N,Hospital,0011300H,174 Arthur ST,Grafton 2460,-29.67573,152.941757,Australia,174 Arthur ST Grafton 2460 NSW Australia,1,Inner Regional,97.3,M,Medium public acute,Yes,Yes,Yes,Yes,B2,Large regional and remote,LG
161,NSW,Griffith,15.5,1184R2050,,N,Hospital,0011340Y,1 Noorebar AV,Griffith 2680,-34.283203,146.044917,Australia,1 Noorebar AV Griffith 2680 NSW Australia,2,Outer Regional,88.3,L,Large public acute,Yes,Yes,Yes,No,C1,Medium (group 1),LG
72,NSW,Gunnedah,17.25,1180J2060,,N,Hospital,0011370T,2 Marquis ST,Gunnedah 2380,-30.983231,150.251465,Australia,2 Marquis ST Gunnedah 2380 NSW Australia,2,Outer Regional,33.9,S1,Small public acute with surgery/obstetrics,Yes,Yes,Yes,No,D1,Small regional acute,SM
50,NSW,Hawkesbury,17,1175D2290,,N,Hospital,0017140B,Cnr Macquarie and Day St,Windsor 2756,-33.611009,150.817898,Australia,Cnr Macquarie and Day St Windsor 2756 NSW Australia,0,Major Cities,97,M,Medium public acute,Yes,Yes,Yes,Yes,B1,Large Major cities,LG
57,NSW,Hornsby and Ku-Ring-Gai,13,1176B2100,,N,Hospital,0010140T,36-76 Palmerston RD,Hornsby 2077,-33.70163,151.112732,Australia,36-76 Palmerston RD Hornsby 2077 NSW Australia,0,Major Cities,252.7,L,Large public acute,Yes,Yes,Yes,Yes,A1,Principal referral,LG
74,NSW,Inverell,18,1180J2080,,N,Hospital,0011460L,41-61 Swanbrook RD,Inverell 2360,-29.7692863,151.1309494,Australia,41-61 Swanbrook RD Inverell 2360 NSW Australia,2,Outer Regional,33.8,S1,Small public acute with surgery/obstetrics,Yes,Yes,Yes,No,C2,Medium (group 2),SM
104,NSW,John Hunter,21,1180Q2300,,N,Hospital,0012790J,156 Kookaburra CCT,New Lambton Heights 2305,-32.922992,151.693001,Australia,156 Kookaburra CCT New Lambton Heights 2305 NSW Australia,0,Major Cities,761.3,PR,Principal referral,Yes,Yes,Yes,Yes,A1,Principal referral,PR
93,NSW,Kurri Kurri,11.5,1180Q2050,,N,Hospital,0011540L,432 Lang ST,Kurri Kurri 2327,-32.8239861,151.4627599,Australia,432 Lang ST Kurri Kurri 2327 NSW Australia,0,Major Cities,42.3,S1,Small public acute with surgery/obstetrics,Yes,Yes,Yes,No,D2,Small non-acute,SM
112,NSW,Lismore,31,1181H2140,,N,Hospital,0011590B,60 Uralba ST,Lismore 2480,-28.80989,153.289049,Australia,60 Uralba ST Lismore 2480 NSW Australia,1,Inner Regional,249,L,Large public acute,Yes,Yes,Yes,Yes,A1,Principal referral,LG
53,NSW,Lithgow,9,1175L2130,,N,Hospital,0011600W,2 Col Drewe DR,Lithgow 2790,-33.49873,150.12738,Australia,2 Col Drewe DR Lithgow 2790 NSW Australia,1,Inner Regional,36.6,S1,Small public acute with surgery/obstetrics,Yes,Yes,Yes,No,C2,Medium (group 2),SM
19,NSW,Liverpool,20.5,1171D2090,,N,Hospital,0010200X,Lot 2 Elizabeth ST,Liverpool 2170,-33.920338,150.925287,Australia,Lot 2 Elizabeth ST Liverpool 2170 NSW Australia,0,Major Cities,738.6,PR,Principal referral,Yes,Yes,Yes,Yes,A1,Principal referral,PR
125,NSW,Macksville,23,1182H2160,,N,Hospital,0011820F,14-22 Boundary ST,Macksville 2447,-30.713831,152.920273,Australia,14-22 Boundary ST Macksville 2447 NSW Australia,2,Outer Regional,46.2,S1,Small public acute with surgery/obstetrics,Yes,No,Yes,No,C2,Medium (group 2),SM
114,NSW,Maclean,25.5,1181H2170,,N,Hospital,0011630K,21 Union ST,Maclean 2463,-29.453819,153.201614,Australia,21 Union ST Maclean 2463 NSW Australia,1,Inner Regional,37.2,S1,Small public acute with surgery/obstetrics,Yes,Yes,Yes,No,C2,Medium (group 2),SM
124,NSW,Macleay Valley - Kempsey,14,1182H2120,,N,Hospital,0011640J,119 River ST,Kempsey 2440,-31.0688366,152.8200594,Australia,119 River ST Kempsey 2440 NSW Australia,1,Inner Regional,68.1,M,Medium public acute,Yes,Yes,Yes,No,C1,Medium (group 1),LG
94,NSW,Maitland,32,1180Q2060,,N,Hospital,0011650H,550 High ST,Maitland 2320,-32.7276929,151.545969,Australia,550 High ST Maitland 2320 NSW Australia,0,Major Cities,194,M,Medium public acute,Yes,Yes,Yes,Yes,B1,Large Major cities,LG
58,NSW,Manly,13.5,1176B2120,,N,Hospital,0010220T,150 Darley RD,Manly 2095,-33.80278,151.289677,Australia,150 Darley RD Manly 2095 NSW Australia,0,Major Cities,155,L,Large public acute,Yes,Yes,Yes,Yes,B1,Large Major cities,LG
89,NSW,Manning,26,1180J2250,,N,Hospital,0011680A,26 York ST,Taree 2430,-31.910299,152.454941,Australia,26 York ST Taree 2430 NSW Australia,1,Inner Regional,167.3,L,Large public acute,Yes,Yes,Yes,Yes,A1,Principal referral,LG
36,NSW,Milton and Ulladulla,19.25,1173P2050,,N,Hospital,0011740F,104 Princes HWY,Milton 2538,-35.317242,150.438934,Australia,104 Princes HWY Milton 2538 NSW Australia,1,Inner Regional,25.3,S1,Small public acute with surgery/obstetrics,Yes,Yes,Yes,No,C2,Medium (group 2),SM
59,NSW,Mona Vale,14.75,1176B2140,,N,Hospital,0012470B,18 Coronation ST,Mona Vale 2103,-33.6861232,151.3078254,Australia,18 Coronation ST Mona Vale 2103 NSW Australia,0,Major Cities,162.4,L,Large public acute,Yes,Yes,Yes,Yes,B1,Large Major cities,LG
76,NSW,Moree,2.5,1180J2120,,N,Hospital,0011760A,35 Alice ST,Moree 2400,-29.471277,149.834864,Australia,35 Alice ST Moree 2400 NSW Australia,2,Outer Regional,39.9,S1,Small public acute with surgery/obstetrics,Yes,Yes,Yes,No,C2,Medium (group 2),SM
136,NSW,Moruya,26,1183N2110,,N,Hospital,0011780X,2-10 River ST,Moruya 2537,-35.90406,150.070435,Australia,2-10 River ST Moruya 2537 NSW Australia,1,Inner Regional,59.9,S1,Small public acute with surgery/obstetrics,Yes,Yes,Yes,No,C1,Medium (group 1),SM
45,NSW,Mount Druitt,30.5,1174D2180,,N,Hospital,0012780K,75 Railway ST,Mount Druitt 2770,-33.7651472,150.8313111,Australia,75 Railway ST Mount Druitt 2770 NSW Australia,0,Major Cities,133.5,M,Medium public acute,Yes,Yes,Yes,No,B1,Large Major cities,LG
158,NSW,Murrumburrah - Harden,14.25,1184N2130,,N,Hospital,0011810H,54 Swift ST,Harden 2587,,,Australia,54 Swift ST Harden 2587 NSW Australia,1,Inner Regional,13,S2,Other small public acute,Yes,No,No,No,D1,Small regional acute,SM
96,NSW,Muswellbrook,15,1180Q2090,,N,Hospital,0010800W,36 Brentwood ST,Muswellbrook 2333,-32.265314,150.900611,Australia,36 Brentwood ST Muswellbrook 2333 NSW Australia,1,Inner Regional,47,S1,Small public acute with surgery/obstetrics,Yes,Yes,Yes,No,C2,Medium (group 2),SM
77,NSW,Narrabri,8.25,1180J2130,,N,Hospital,0011830B,11 Cameron ST,Narrabri 2390,-30.326931,149.7785,Australia,11 Cameron ST Narrabri 2390 NSW Australia,2,Outer Regional,29.7,S1,Small public acute with surgery/obstetrics,Yes,Yes,Yes,No,D1,Small regional acute,SM
48,NSW,Nepean,15.5,1175D2100,,N,Hospital,0011860X,256 Derby ST,Kingswood 2747,-33.760807,150.711684,Australia,256 Derby ST Kingswood 2747 NSW Australia,0,Major Cities,522,PR,Principal referral,Yes,Yes,Yes,Yes,A1,Principal referral,PR
208,NSW,Orange Health Service,14,1185L2160,,N,Hospital,0011920A,1502 Forest RD,Orange 2800,-33.3209,149.095047,Australia,1502 Forest RD Orange 2800 NSW Australia,1,Inner Regional,318.8,L,Large public acute,Yes,Yes,Yes,Yes,A1,Principal referral,LG
127,NSW,Port Macquarie,17.75,1182H2720,,N,Hospital,,1-31 Wrights RD,Port Macquarie 2444,-31.452821,152.875936,Australia,1-31 Wrights RD Port Macquarie 2444 NSW Australia,1,Inner Regional,169.6,L,Large public acute,Yes,Yes,Yes,Yes,A1,Principal referral,LG
29,NSW,Prince of Wales,19.75,1172C2080,,N,Hospital,0010260H,147 Barker ST,Randwick 2031,-33.919478,151.225835,Australia,147 Barker ST Randwick 2031 NSW Australia,0,Major Cities,512.7,PR,Principal referral,Yes,Yes,Yes,Yes,A1,Principal referral,PR
138,NSW,Queanbeyan,26.75,1183N2150,,N,Hospital,0011980K,16 Erin ST,Queanbeyan 2620,-35.345989,149.233063,Australia,16 Erin ST Queanbeyan 2620 NSW Australia,0,Major Cities,45.2,S1,Small public acute with surgery/obstetrics,Yes,No,Yes,No,C2,Medium (group 2),SM
60,NSW,Royal North Shore,20.75,1176B2180,,N,Hospital,0010310L,1 Reserve RD,St Leonards 2065,-33.8139905,151.1854793,Australia,1 Reserve RD St Leonards 2065 NSW Australia,0,Major Cities,657.6,PR,Principal referral,Yes,Yes,Yes,Yes,A1,Principal referral,PR
12,NSW,Royal Prince Alfred,31.25,1170A2080,,N,Hospital,0010320k,50 Missenden RD,Camperdown 2050,-33.8916011,151.1827667,Australia,50 Missenden RD Camperdown 2050 NSW Australia,0,Major Cities,753.2,PR,Principal referral,Yes,Yes,Yes,Yes,A1,Principal referral,PR
62,NSW,Ryde,13.5,1176B2240,,N,Hospital,0010390X,1 Denistone RD,Eastwood 2122,-33.796211,151.090103,Australia,1 Denistone RD Eastwood 2122 NSW Australia,0,Major Cities,142.1,M,Medium public acute,Yes,Yes,Yes,Yes,B1,Large Major cities,LG
40,NSW,Shellharbour,20.25,1173P2110,,N,Hospital,0010060T,15-17 Madigan BVD,Mount Warrigal 2528,-34.557991,150.842468,Australia,15-17 Madigan BVD Mount Warrigal 2528 NSW Australia,0,Major Cities,165.5,M,Medium public acute,Yes,Yes,Yes,Yes,B1,Large Major cities,LG
38,NSW,Shoalhaven Memorial,25.75,1173P2070,,N,Hospital,0012060Y,2 Shoalhaven ST,Nowra 2541,-34.8817447,150.5941701,Australia,2 Shoalhaven ST Nowra 2541 NSW Australia,1,Inner Regional,155.1,L,Large public acute,Yes,Yes,Yes,Yes,A1,Principal referral,LG
101,NSW,Singleton,23.25,1180Q2170,,N,Hospital,0012070X,Lot 20 Dangar RD,Singleton 2330,-32.565708,151.183594,Australia,Lot 20 Dangar RD Singleton 2330 NSW Australia,1,Inner Regional,47.4,S1,Small public acute with surgery/obstetrics,Yes,Yes,Yes,No,C2,Medium (group 2),SM
30,NSW,St George,23.75,1172C2130,,N,Hospital,0010410J,28 Gray ST,Kogarah 2017,-33.967789,151.133209,Australia,28 Gray ST Kogarah 2017 NSW Australia,0,Major Cities,605.7,PR,Principal referral,Yes,Yes,Yes,Yes,A1,Principal referral,PR
8,NSW,St Vincent's Darlinghurst,10.75,1169A2120,,N,Hospital,0010460Y,390 Victoria ST,Darlinghurst 2010,-33.879101,151.221786,Australia,390 Victoria ST Darlinghurst 2010 NSW Australia,0,Major Cities,363.8,PR,Principal referral,Yes,Yes,Yes,Yes,A1,Principal referral,PR
31,NSW,Sutherland,24.5,1172C2140,,N,Hospital,0010480W,430 Kingsway,Caringbah 2229,-34.0367797,151.1167383,Australia,430 Kingsway Caringbah 2229 NSW Australia,0,Major Cities,318.8,L,Large public acute,Yes,Yes,Yes,Yes,A1,Principal referral,LG
6,NSW,Sydney Children's,22.5,1163C2380,,N,Hospital,0010260H,1 High ST,Randwick 2031,-33.902328,151.255814,Australia,1 High ST Randwick 2031 NSW Australia,0,Major Cities,148.5,W3,Childrens,Yes,Yes,Yes,Yes,A2,Specialist womens and childrens,WC
24,NSW,Sydney/ Sydney Eye,19.25,1172A2330,,N,Hospital,0010500H,8 Macquarie ST,Sydney 2000,-33.8672715,151.2123468,Australia,8 Macquarie ST Sydney 2000 NSW Australia,0,Major Cities,66.8,M,Medium public acute,Yes,Yes,Yes,No,C1,Medium (group 1),LG
80,NSW,Tamworth,22.25,1180J2160,,N,Hospital,0012090T,31 Dean ST,North Tamworth 2340,-31.076974,150.92263,Australia,31 Dean ST North Tamworth 2340 NSW Australia,1,Inner Regional,246,L,Large public acute,Yes,Yes,Yes,Yes,A1,Principal referral,LG
118,NSW,The Tweed Hospital,11.75,1181H2230,,N,Hospital,0012690L,14 Powell ST,Tweed Heads 2485,-28.175131,153.544449,Australia,14 Powell ST Tweed Heads 2485 NSW Australia,0,Major Cities,229.8,L,Large public acute,Yes,Yes,Yes,Yes,A1,Principal referral,LG
171,NSW,Tumut,2.25,1184R2180,,N,Hospital,0012190K,105 Simpson ST,Tumut 2720,-35.3061631,148.219804,Australia,105 Simpson ST Tumut 2720 NSW Australia,1,Inner Regional,31.5,S1,Small public acute with surgery/obstetrics,Yes,No,Yes,No,D1,Small regional acute,SM
172,NSW,Wagga Wagga,13.75,1184R2190,,N,Hospital,0012250T,260 Edward ST,Wagga Wagga 2650,-35.117779,147.358414,Australia,260 Edward ST Wagga Wagga 2650 NSW Australia,1,Inner Regional,238.3,L,Large public acute,Yes,Yes,Yes,Yes,A1,Principal referral,LG
46,NSW,Westmead,25.25,1174D2240,,N,Hospital,0012760T,166 Darcy RD,Westmead 2145,-33.803524,150.978219,Australia,166 Darcy RD Westmead 2145 NSW Australia,0,Major Cities,788.3,PR,Principal referral,Yes,Yes,Yes,Yes,A1,Principal referral,PR
39,NSW,Wollongong,27,1173P2080,,N,Hospital,0012400W,348 Crown ST,Wollongong 2500,-34.42474,150.883499,Australia,348 Crown ST Wollongong 2500 NSW Australia,0,Major Cities,484.6,PR,Principal referral,Yes,Yes,Yes,Yes,A1,Principal referral,PR
66,NSW,Wyong,22,1177B2060,,N,Hospital,0012770L,Pacific HWY,Kanwal 2259,-33.260397,151.484401,Australia,Pacific HWY Kanwal 2259 NSW Australia,0,Major Cities,320.7,L,Large public acute,Yes,Yes,Yes,Yes,A1,Principal referral,LG
159,NSW,Young,7.5,1184N2180,,N,Hospital,0012430K,68 Allanan ST,Young 2594,-34.320709,148.288254,Australia,68 Allanan ST Young 2594 NSW Australia,1,Inner Regional,28,S1,Small public acute with surgery/obstetrics,Yes,No,Yes,No,C2,Medium (group 2),SM
230,NT,Alice Springs Hospital,35,717100072,,Y,Hospital,,Gap RD,Alice Springs 870,-23.704875,133.880189,Australia,Gap RD Alice Springs 870 NT Australia,3,Remote,183,L,Large public acute,Yes,Yes,Yes,Yes,A1,Principal referral,LG
233,NT,Gove Hospital,35,717100075,,Y,Hospital,,Mathew Flinders WAY,Nhulunbuy 880,-12.186582,136.78085,Australia,Mathew Flinders WAY Nhulunbuy 880 NT Australia,4,Very remote,34,S1,Small public acute with surgery/obstetrics,Yes,Yes,Yes,No,D3,Small remote acute,SM
232,NT,Katherine Hospital,35,717100074,,Y,Hospital,,Gorge RD,Katherine 850,-14.43906,132.276915,Australia,Gorge RD Katherine 850 NT Australia,3,Remote,60,S1,Small public acute with surgery/obstetrics,Yes,Yes,Yes,No,D3,Small remote acute,SM
229,NT,Royal Darwin Hospital,35,717100071,,Y,Hospital,,Rocklands DV,Tiwi 810,-19.718396,138.064108,Australia,Rocklands DV Tiwi 810 NT Australia,2,Outer Regional,367,PR,Principal referral,Yes,Yes,Yes,Yes,A1,Principal referral,PR
231,NT,Tennant Creek Hospital,35,717100073,,Y,Hospital,,Schmidt ST,Tennant Creek 860,-19.643612,134.189067,Australia,Schmidt ST Tennant Creek 860 NT Australia,4,Very remote,20,S1,Small public acute with surgery/obstetrics,Yes,Yes,Yes,No,D3,Small remote acute,SM
304,QLD,ALPHA HOSPITAL,,310000131,,Y,Hospital,,Gordon Street,Alpha 4724,-23.654364,146.634624,Australia,Gordon Street Alpha 4724 QLD Australia,4,Very remote,5,VS,Very small public,Yes,No,No,No,G,Un-peered and other,SM
317,QLD,ARAMAC HOSPITAL,,310000151,,Y,Hospital,,Lodge Street,Aramac 4726,,,Australia,Lodge Street Aramac 4726 QLD Australia,4,Very remote,0,OT,Outpatient hospital,No,No,No,No,G,Un-peered and other,SP
344,QLD,ATHERTON HOSPITAL,,310000211,,Y,Hospital,,Corner of Louise and Jack Streets,Atherton 4883,,,Australia,Corner of Louise and Jack Streets Atherton 4883 QLD Australia,2,Outer Regional,44,S1,Small public acute with surgery/obstetrics,Yes,No,Yes,No,C2,Medium (group 2),SM
291,QLD,AUGATHELLA HOSPITAL,,310000111,,Y,Hospital,,Cavanagh Street,Augathella 4477,-25.795384,146.58937,Australia,Cavanagh Street Augathella 4477 QLD Australia,4,Very remote,6,VS,Very small public,Yes,No,No,No,G,Un-peered and other,SM
363,QLD,AURUKUN PRIMARY HEALTH CARE CENTRE,,310000230,,Y,Hospital,,Kang Kang Road,Aurukun 4871,-13.354703,141.724802,Australia,Kang Kang Road Aurukun 4871 QLD Australia,4,Very remote,1,OT,Outpatient hospital,Yes,No,No,No,G,Un-peered and other,SP
335,QLD,AYR HOSPITAL,,310000191,,Y,Hospital,,2 Chippendale Street,Ayr 4807,,,Australia,2 Chippendale Street Ayr 4807 QLD Australia,2,Outer Regional,32,S1,Small public acute with surgery/obstetrics,Yes,No,No,No,D1,Small regional acute,SM
345,QLD,BABINDA HOSPITAL,,310000212,,Y,Hospital,,128 Munro Street,Babinda 4861,-17.3428,145.91893,Australia,128 Munro Street Babinda 4861 QLD Australia,2,Outer Regional,22,S2,Other small public acute,Yes,No,No,No,D2,Small non-acute,SM
400,QLD,BAILLIE HENDERSON HOSPITAL,,340000701,,Y,Hospital,,Corner of Hogg and Tor Streets,Toowoomba 4350,,,Australia,Corner of Hogg and Tor Streets Toowoomba 4350 QLD Australia,1,Inner Regional,180,Ps,Psychiatric public,Yes,No,No,No,F,Psychiatric,PS
346,QLD,BAMAGA HOSPITAL,,310000213,,Y,Hospital,,Sagaukaz Street,Bamaga 4876,,,Australia,Sagaukaz Street Bamaga 4876 QLD Australia,4,Very remote,10,S2,Other small public acute,Yes,No,No,No,D2,Small non-acute,SM
305,QLD,BARALABA HOSPITAL,,310000132,,Y,Hospital,,Stopford Street,Baralaba 4702,,,Australia,Stopford Street Baralaba 4702 QLD Australia,2,Outer Regional,5,VS,Very small public,Yes,No,No,No,G,Un-peered and other,SM
318,QLD,BARCALDINE HOSPITAL,,310000152,,Y,Hospital,,Oak Street,Barcaldine 4725,,,Australia,Oak Street Barcaldine 4725 QLD Australia,4,Very remote,12,S2,Other small public acute,Yes,No,No,No,D2,Small non-acute,SM
249,QLD,BEAUDESERT HOSPITAL,,310000041,,Y,Hospital,,64 Tina Street,Beaudesert 4285,-27.98568,153.002304,Australia,64 Tina Street Beaudesert 4285 QLD Australia,1,Inner Regional,22,S2,Other small public acute,Yes,No,Yes,No,D2,Small non-acute,SM
259,QLD,BIGGENDEN HOSPITAL,,310000061,,Y,Hospital,,Alice Street,Biggenden 4621,-25.506506,152.050372,Australia,Alice Street Biggenden 4621 QLD Australia,2,Outer Regional,7,S2,Other small public acute,Yes,No,No,No,D1,Small regional acute,SM
306,QLD,BILOELA HOSPITAL,,310000133,,Y,Hospital,,2 Hospital Road,Biloela 4715,-24.39599,150.517654,Australia,2 Hospital Road Biloela 4715 QLD Australia,2,Outer Regional,25,S1,Small public acute with surgery/obstetrics,Yes,No,No,No,D1,Small regional acute,SM
319,QLD,BLACKALL HOSPITAL,,310000153,,Y,Hospital,,Shamrock Street,Blackall 4472,,,Australia,Shamrock Street Blackall 4472 QLD Australia,4,Very remote,16,S2,Other small public acute,Yes,No,No,No,D3,Small remote acute,SM
307,QLD,BLACKWATER HOSPITAL,,310000134,,Y,Hospital,,Mackenzie Street,Blackwater 4717,,,Australia,Mackenzie Street Blackwater 4717 QLD Australia,2,Outer Regional,10,S2,Other small public acute,Yes,No,No,No,D1,Small regional acute,SM
250,QLD,BOONAH HOSPITAL,,310000042,,Y,Hospital,,11-17 Leonard Street,Boonah 4310,-27.9991052,152.6780064,Australia,11-17 Leonard Street Boonah 4310 QLD Australia,1,Inner Regional,23,S2,Other small public acute,Yes,No,No,No,D2,Small non-acute,SM
320,QLD,BOULIA PRIMARY HEALTH CENTRE,,310000154,,Y,Hospital,,Wills Street,Boulia 4829,-22.910818,139.90949,Australia,Wills Street Boulia 4829 QLD Australia,4,Very remote,0,OT,Outpatient hospital,No,No,No,No,G,Un-peered and other,SP
336,QLD,BOWEN HOSPITAL,,310000192,,Y,Hospital,,Gregory Street,Bowen 4805,,,Australia,Gregory Street Bowen 4805 QLD Australia,2,Outer Regional,27,S1,Small public acute with surgery/obstetrics,Yes,No,No,No,D1,Small regional acute,SM
260,QLD,BUNDABERG HOSPITAL,18,310000062,,,Hospital,,Bourbong Street,Bundaberg 4670,-24.864543,152.354305,Australia,Bourbong Street Bundaberg 4670 QLD Australia,1,Inner Regional,243,L,Large public acute,Yes,Yes,Yes,Yes,A1,Principal referral,LG
367,QLD,BURKETOWN HEALTH CLINIC,,310000241,,Y,Hospital,,Hospital Road,Burketown 4830,-17.857939,138.947606,Australia,Hospital Road Burketown 4830 QLD Australia,4,Very remote,1,VS,Very small public,Yes,No,No,No,G,Un-peered and other,SM
248,QLD,CABOOLTURE HOSPITAL,23,310000030,,,Hospital,,McKean Street,Caboolture 4510,-27.078739,152.957281,Australia,McKean Street Caboolture 4510 QLD Australia,0,Major Cities,223,M,Medium public acute,Yes,Yes,Yes,Yes,A1,Principal referral,LG
347,QLD,CAIRNS BASE HOSPITAL,16,310000214,,,Hospital,,The Esplanade,Cairns 4870,-16.914875,145.772366,Australia,The Esplanade Cairns 4870 QLD Australia,2,Outer Regional,480,L,Large public acute,Yes,Yes,Yes,Yes,A1,Principal referral,LG
251,QLD,CALOUNDRA HOSPITAL,15,310000043,,,Hospital,,West Terrace,Caloundra 4551,-26.795872,153.100839,Australia,West Terrace Caloundra 4551 QLD Australia,0,Major Cities,88,M,Medium public acute,Yes,Yes,Yes,No,C1,Medium (group 1),LG
368,QLD,CAMOOWEAL HEALTH CLINIC,,310000242,,Y,Hospital,,Nowranie Street,Camooweal 4828,-19.919411,138.120252,Australia,Nowranie Street Camooweal 4828 QLD Australia,4,Very remote,3,VS,Very small public,Yes,No,No,No,G,Un-peered and other,SM
382,QLD,CAPELLA OUTPATIENTS CLINIC,,310000905,,Y,Hospital,,Main Street,Bollon 4488,-28.031544,147.4784,Australia,Main Street Bollon 4488 QLD Australia,3,Remote,0,OT,Outpatient hospital,No,No,No,No,G,Un-peered and other,SP
315,QLD,CAPRICORN COAST HOSPITAL & HEALTH SERVICE,,310000144,,Y,Hospital,,8 Hoskyn Drive,Yeppoon 4703,-23.1441528,150.7347308,Australia,8 Hoskyn Drive Yeppoon 4703 QLD Australia,1,Inner Regional,28,S1,Small public acute with surgery/obstetrics,Yes,No,No,No,C2,Medium (group 2),SM
292,QLD,CHARLEVILLE HOSPITAL,,310000112,,Y,Hospital,,72 King Street,Charleville 4470,-26.40041,146.253021,Australia,72 King Street Charleville 4470 QLD Australia,4,Very remote,30,S1,Small public acute with surgery/obstetrics,Yes,No,No,No,D3,Small remote acute,SM
337,QLD,CHARTERS TOWERS HOSPITAL,,310000193,,Y,Hospital,,137-139 Gill Street,Charters Towers 4820,-20.07604,146.26416,Australia,137-139 Gill Street Charters Towers 4820 QLD Australia,2,Outer Regional,29,S2,Other small public acute,Yes,No,No,No,D1,Small regional acute,SM
401,QLD,CHARTERS TOWERS REHABILITATION UNIT,,340000703,,Y,Hospital,,35 Gladstone Road,Charters Towers 4820,-20.075896,146.279307,Australia,35 Gladstone Road Charters Towers 4820 QLD Australia,2,Outer Regional,27,Ps,Psychiatric public,Yes,No,No,No,F,Psychiatric,PS
261,QLD,CHERBOURG HOSPITAL,,310000063,,Y,Hospital,,Fisher Street,Cherbourg 4605,-26.294919,151.95432,Australia,Fisher Street Cherbourg 4605 QLD Australia,2,Outer Regional,17,S1,Small public acute with surgery/obstetrics,Yes,No,No,No,D1,Small regional acute,SM
262,QLD,CHILDERS HOSPITAL,,310000064,,Y,Hospital,,44 Broadhurst Street,Childers 4660,-25.2398181,152.2740162,Australia,44 Broadhurst Street Childers 4660 QLD Australia,1,Inner Regional,14,S2,Other small public acute,Yes,No,No,No,D2,Small non-acute,SM
348,QLD,CHILLAGOE HOSPITAL,,310000215,,Y,Hospital,,21 Hospital Road,Chillagoe 4871,-17.149549,144.5289,Australia,21 Hospital Road Chillagoe 4871 QLD Australia,4,Very remote,0,OT,Outpatient hospital,No,No,No,No,G,Un-peered and other,SP
276,QLD,CHINCHILLA HOSPITAL,,310000091,,Y,Hospital,,Slessar Street,Chinchilla 4413,-26.744844,150.639785,Australia,Slessar Street Chinchilla 4413 QLD Australia,2,Outer Regional,26,S1,Small public acute with surgery/obstetrics,Yes,No,No,No,D1,Small regional acute,SM
329,QLD,CLERMONT HOSPITAL,,310000171,,Y,Hospital,,Francis Street,Clermont 4721,,,Australia,Francis Street Clermont 4721 QLD Australia,3,Remote,10,S2,Other small public acute,Yes,No,No,No,E2,Multi-purpose services,SM
369,QLD,CLONCURRY HOSPITAL,,310000243,,Y,Hospital,,1 Musgrave Street,Cloncurry 4824,-20.703367,140.52699,Australia,1 Musgrave Street Cloncurry 4824 QLD Australia,3,Remote,25,S2,Other small public acute,Yes,No,No,No,D3,Small remote acute,SM
381,QLD,COEN PRIMARY HEALTH CARE CENTRE,,310000255,,Y,Hospital,,Armbrust Street,Coen 4871,-13.944834,143.200996,Australia,Armbrust Street Coen 4871 QLD Australia,4,Very remote,1,VS,Very small public,No,No,No,No,G,Un-peered and other,SM
338,QLD,COLLINSVILLE HOSPITAL,,310000194,,Y,Hospital,,Garrick Street,Collinsville 4804,-20.546829,147.840325,Australia,Garrick Street Collinsville 4804 QLD Australia,3,Remote,8,S2,Other small public acute,Yes,No,No,No,D3,Small remote acute,SM
349,QLD,COOKTOWN HOSPITAL,,310000216,,Y,Hospital,,48 Hope Street,Cooktown 4895,-15.47774,145.250412,Australia,48 Hope Street Cooktown 4895 QLD Australia,3,Remote,18,S2,Other small public acute,Yes,No,No,No,E2,Multi-purpose services,SM
383,QLD,CRACOW OUTPATIENTS CLINIC,,310000907,,Y,Hospital,,Slider Street,Capella 4702,-23.080237,148.023022,Australia,Slider Street Capella 4702 QLD Australia,3,Remote,0,OT,Outpatient hospital,No,No,No,No,G,Un-peered and other,SP
350,QLD,CROYDON HOSPITAL,,310000217,,Y,Hospital,,Sircom Street,Croydon 4871,,,Australia,Sircom Street Croydon 4871 QLD Australia,4,Very remote,0,OT,Outpatient hospital,No,No,No,No,G,Un-peered and other,SP
293,QLD,CUNNAMULLA HOSPITAL,,310000113,,Y,Hospital,,56 Wicks Street,Cunnamulla 4490,-28.07089,145.689087,Australia,56 Wicks Street Cunnamulla 4490 QLD Australia,4,Very remote,20,S2,Other small public acute,Yes,No,No,No,D3,Small remote acute,SM
377,QLD,DAJARRA HEALTH CLINIC,,310000251,,Y,Hospital,,12 Matheson Street,Dajarra 4825,-21.694518,139.513727,Australia,12 Matheson Street Dajarra 4825 QLD Australia,4,Very remote,1,VS,Very small public,Yes,No,No,No,G,Un-peered and other,SM
277,QLD,DALBY HOSPITAL,,310000092,,Y,Hospital,,Hospital Road,Dalby 4405,-27.17078,151.276139,Australia,Hospital Road Dalby 4405 QLD Australia,1,Inner Regional,46,S1,Small public acute with surgery/obstetrics,Yes,No,No,No,C2,Medium (group 2),SM
384,QLD,DIMBULAH OUTPATIENTS CLINIC,,310000908,,Y,Hospital,,Fourth Avenue,Cracow 4719,-25.293859,150.297583,Australia,Fourth Avenue Cracow 4719 QLD Australia,2,Outer Regional,0,OT,Outpatient hospital,No,No,No,No,G,Un-peered and other,SP
294,QLD,DIRRANBANDI HOSPITAL,,310000114,,Y,Hospital,,Corner of Jane and Cowildi Streets,Dirranbandi 4486,,,Australia,Corner of Jane and Cowildi Streets Dirranbandi 4486 QLD Australia,4,Very remote,7,S2,Other small public acute,Yes,No,No,No,E2,Multi-purpose services,SM
378,QLD,DOOMADGEE HOSPITAL,,310000252,,Y,Hospital,,Sharpe Street,Doomadgee 4830,-17.942599,138.824577,Australia,Sharpe Street Doomadgee 4830 QLD Australia,4,Very remote,7,S2,Other small public acute,Yes,No,No,No,D3,Small remote acute,SM
385,QLD,DUARINGA OUTPATIENTS CLINIC,,310000910,,Y,Hospital,,3-5 Stephens Street,Dimbulah 4872,-17.146669,145.106781,Australia,3-5 Stephens Street Dimbulah 4872 QLD Australia,3,Remote,0,OT,Outpatient hospital,No,No,No,No,G,Un-peered and other,SP
334,QLD,DYSART HOSPITAL,,310000176,,Y,Hospital,,Queen Elizabeth Drive,Dysart 4745,,,Australia,Queen Elizabeth Drive Dysart 4745 QLD Australia,2,Outer Regional,9,S2,Other small public acute,Yes,No,No,No,D1,Small regional acute,SM
263,QLD,EIDSVOLD HOSPITAL,,310000065,,Y,Hospital,,Cracow Road,Eidsvold 4627,-25.381791,150.854992,Australia,Cracow Road Eidsvold 4627 QLD Australia,2,Outer Regional,6,S2,Other small public acute,Yes,No,No,No,G,Un-peered and other,SM
242,QLD,ELLEN BARRON FAMILY CENTRE,,310000017,,Y,Hospital,,Hamilton Road,Chermside 4032,-27.38242,153.00759,Australia,Hamilton Road Chermside 4032 QLD Australia,0,Major Cities,48,O1,Early parenting centres,Yes,No,No,No,E5,Mothercraft,WC
308,QLD,EMERALD HOSPITAL,,310000135,,Y,Hospital,,69 Hospital Road,Emerald 4720,-23.511979,148.156001,Australia,69 Hospital Road Emerald 4720 QLD Australia,2,Outer Regional,37,S1,Small public acute with surgery/obstetrics,Yes,No,Yes,No,C2,Medium (group 2),SM
252,QLD,ESK HOSPITAL,,310000044,,Y,Hospital,,30 Highland Street,Esk 4312,-27.2404,152.418137,Australia,30 Highland Street Esk 4312 QLD Australia,1,Inner Regional,20,S2,Other small public acute,Yes,No,No,No,D1,Small regional acute,SM
351,QLD,FORSAYTH HOSPITAL,,310000218,,Y,Hospital,,Fourth Street,Forsayth 4871,-18.590037,143.603759,Australia,Fourth Street Forsayth 4871 QLD Australia,4,Very remote,0,OT,Outpatient hospital,No,No,No,No,G,Un-peered and other,SP
253,QLD,GATTON HOSPITAL,,310000045,,Y,Hospital,,97-103 William Street,Gatton 4343,-27.56682,152.27623,Australia,97-103 William Street Gatton 4343 QLD Australia,1,Inner Regional,22,S2,Other small public acute,Yes,No,No,No,D2,Small non-acute,SM
264,QLD,GAYNDAH HOSPITAL,,310000066,,Y,Hospital,,69 Warton Street,Gayndah 4625,-25.628291,151.605718,Australia,69 Warton Street Gayndah 4625 QLD Australia,2,Outer Regional,12,S2,Other small public acute,Yes,No,No,No,D2,Small non-acute,SM
398,QLD,GEMFIELDS OUTPATIENTS CLINIC,,310000940,,Y,Hospital,,984 Rubyvale Road,Sapphire 4702,,,Australia,984 Rubyvale Road Sapphire 4702 QLD Australia,3,Remote,0,OT,Outpatient hospital,No,No,No,No,G,Un-peered and other,SP
352,QLD,GEORGETOWN HOSPITAL,,310000219,,Y,Hospital,,High Street,Georgetown 4871,,,Australia,High Street Georgetown 4871 QLD Australia,4,Very remote,0,OT,Outpatient hospital,No,No,No,No,G,Un-peered and other,SP
265,QLD,GIN GIN HOSPITAL,,310000067,,Y,Hospital,,5 King Street,Gin Gin 4671,-24.9868289,151.9534439,Australia,5 King Street Gin Gin 4671 QLD Australia,2,Outer Regional,6,S2,Other small public acute,Yes,No,No,No,D1,Small regional acute,SM
309,QLD,GLADSTONE HOSPITAL,11,310000136,,,Hospital,,Park Street,Gladstone 4680,-23.852101,151.246509,Australia,Park Street Gladstone 4680 QLD Australia,1,Inner Regional,78,M,Medium public acute,Yes,Yes,Yes,No,C1,Medium (group 1),LG
386,QLD,GLENMORGAN OUTPATIENTS CLINIC,,310000912,,Y,Hospital,,Corner of Elizabeth and William Streets,Duaringa 4712,,,Australia,Corner of Elizabeth and William Streets Duaringa 4712 QLD Australia,3,Remote,0,OT,Outpatient hospital,No,No,No,No,G,Un-peered and other,SP
258,QLD,GOLD COAST HOSPITAL,31,310000050,,,Hospital,,1 Hospital Boulevard,Southport 4215,-27.9709702,153.4088898,Australia,1 Hospital Boulevard Southport 4215 QLD Australia,0,Major Cities,570,PR,Principal referral,Yes,Yes,Yes,Yes,A1,Principal referral,PR
278,QLD,GOONDIWINDI HOSPITAL,,310000093,,Y,Hospital,,Bowen Street,Goondiwindi 4390,-28.548471,150.308452,Australia,Bowen Street Goondiwindi 4390 QLD Australia,2,Outer Regional,37,S1,Small public acute with surgery/obstetrics,Yes,No,No,No,D1,Small regional acute,SM
353,QLD,GORDONVALE HOSPITAL,,310000220,,Y,Hospital,,1-11 Highleigh Road,Gordonvale 4865,-17.087351,145.786163,Australia,1-11 Highleigh Road Gordonvale 4865 QLD Australia,2,Outer Regional,24,N1,Non-acute public-rehabilitation and GEM,Yes,No,No,No,G,Un-peered and other,SP
266,QLD,GYMPIE HOSPITAL,14,310000068,,,Hospital,,12 Henry Street,Gympie 4570,-26.33453,152.818054,Australia,12 Henry Street Gympie 4570 QLD Australia,1,Inner Regional,89,M,Medium public acute,Yes,Yes,Yes,No,C1,Medium (group 1),LG
354,QLD,HERBERTON HOSPITAL,,310000221,,Y,Hospital,,23 Grace Street,Herberton 4887,-17.379184,145.3815982,Australia,23 Grace Street Herberton 4887 QLD Australia,2,Outer Regional,38,N1,Non-acute public-rehabilitation and GEM,Yes,No,No,No,G,Un-peered and other,SP
267,QLD,HERVEY BAY HOSPITAL,19,310000069,,,Hospital,,Corner of Nissen and Uraween Roads,Pialba 4655,-25.2991905,152.8212585,Australia,Corner of Nissen and Uraween Roads Pialba 4655 QLD Australia,1,Inner Regional,151,L,Large public acute,Yes,Yes,Yes,Yes,A1,Principal referral,LG
339,QLD,HOME HILL HOSPITAL,,310000195,,Y,Hospital,,Tenth Avenue,Home Hill 4806,-19.66166,147.415984,Australia,Tenth Avenue Home Hill 4806 QLD Australia,2,Outer Regional,14,VS,Very small public,Yes,No,No,No,G,Un-peered and other,SM
364,QLD,HOPEVALE MEDICAL CENTRE,,310000231,,Y,Hospital,,Aerodrome Road,Hope Vale 4895,-15.293416,145.106072,Australia,Aerodrome Road Hope Vale 4895 QLD Australia,3,Remote,1,VS,Very small public,Yes,No,No,No,G,Un-peered and other,SM
370,QLD,HUGHENDEN HOSPITAL,,310000244,,Y,Hospital,,14 Richmond Hill Drive,Hughenden 4821,-20.843398,144.194006,Australia,14 Richmond Hill Drive Hughenden 4821 QLD Australia,4,Very remote,15,S2,Other small public acute,Yes,No,No,No,D2,Small non-acute,SM
340,QLD,INGHAM HOSPITAL,,310000196,,Y,Hospital,,2-16 Mcilwraith Street,Ingham 4850,-18.6531135,146.1652932,Australia,2-16 Mcilwraith Street Ingham 4850 QLD Australia,2,Outer Regional,32,S2,Other small public acute,Yes,No,No,No,D1,Small regional acute,SM
279,QLD,INGLEWOOD HOSPITAL,,310000094,,Y,Hospital,,Cunningham Highway,Inglewood 4387,-28.411846,151.105305,Australia,Cunningham Highway Inglewood 4387 QLD Australia,2,Outer Regional,12,S2,Other small public acute,Yes,No,No,No,E2,Multi-purpose services,SM
295,QLD,INJUNE HOSPITAL,,310000115,,Y,Hospital,,Fifth Avenue,Injune 4454,-25.846659,148.562968,Australia,Fifth Avenue Injune 4454 QLD Australia,4,Very remote,6,S2,Other small public acute,Yes,No,No,No,G,Un-peered and other,SM
355,QLD,INNISFAIL HOSPITAL,,310000222,,Y,Hospital,,87 Rankin Street,Innisfail 4860,-17.519221,146.0295653,Australia,87 Rankin Street Innisfail 4860 QLD Australia,2,Outer Regional,64,S1,Small public acute with surgery/obstetrics,Yes,No,Yes,No,C2,Medium (group 2),SM
240,QLD,IPSWICH HOSPITAL,26,310000015,,,Hospital,,Chelmsford Avenue,Ipswich 4305,-27.618858,152.755733,Australia,Chelmsford Avenue Ipswich 4305 QLD Australia,0,Major Cities,341,L,Large public acute,Yes,Yes,Yes,Yes,A1,Principal referral,LG
326,QLD,ISISFORD PRIMARY HEALTH CENTRE,,310000160,,Y,Hospital,,St Helena Street,Isisford 4731,,,Australia,St Helena Street Isisford 4731 QLD Australia,4,Very remote,0,OT,Outpatient hospital,No,No,No,No,G,Un-peered and other,SP
397,QLD,ISLAND MEDICAL SERVICE,,310000939,,Y,Hospital,,Victoria Parade,Thursday Island,-10.585121,142.220295,Australia,Victoria Parade Thursday Island QLD Australia,4,Very remote,0,OT,Outpatient hospital,No,No,No,No,G,Un-peered and other,SP
280,QLD,JANDOWAE HOSPITAL,,310000095,,Y,Hospital,,13 Dalby Street,Jandowae 4410,-26.777516,151.111943,Australia,13 Dalby Street Jandowae 4410 QLD Australia,2,Outer Regional,12,VS,Very small public,Yes,No,No,No,G,Un-peered and other,SM
341,QLD,JOYCE PALMER HEALTH SERVICE,,310000197,,Y,Hospital,,Beach Road,Palm Island 4816,,,Australia,Beach Road Palm Island 4816 QLD Australia,3,Remote,13,S2,Other small public acute,Yes,No,No,No,D3,Small remote acute,SM
371,QLD,JULIA CREEK HOSPITAL,,310000245,,Y,Hospital,,1 Burke Street,Julia Creek 4823,-20.655979,141.750244,Australia,1 Burke Street Julia Creek 4823 QLD Australia,4,Very remote,10,S2,Other small public acute,Yes,No,No,No,G,Un-peered and other,SM
321,QLD,JUNDAH PRIMARY HEALTH CENTRE,,310000155,,Y,Hospital,,1 Hospital Road,Jundah 4736,-24.821664,143.066577,Australia,1 Hospital Road Jundah 4736 QLD Australia,4,Very remote,0,OT,Outpatient hospital,No,No,No,No,G,Un-peered and other,SP
376,QLD,KARUMBA HEALTH CLINIC,,310000250,,Y,Hospital,,160 Walker Street,Karumba 4891,-17.48509,140.84665,Australia,160 Walker Street Karumba 4891 QLD Australia,4,Very remote,1,VS,Very small public,Yes,No,No,No,G,Un-peered and other,SM
254,QLD,KILCOY HOSPITAL,,310000046,,Y,Hospital,,19 Brown Street,Kilcoy 4515,-26.93817,152.56187,Australia,19 Brown Street Kilcoy 4515 QLD Australia,1,Inner Regional,21,S2,Other small public acute,Yes,No,No,No,D2,Small non-acute,SM
268,QLD,KINGAROY HOSPITAL,,310000070,,Y,Hospital,,166 Youngman Street,Kingaroy 4610,-26.532261,151.838882,Australia,166 Youngman Street Kingaroy 4610 QLD Australia,1,Inner Regional,47,S1,Small public acute with surgery/obstetrics,Yes,No,Yes,No,C2,Medium (group 2),SM
402,QLD,KIRWAN MENTAL HEALTH REHABILITATION UNIT,,340000715,,Y,Hospital,,138 Thuringowa Drive,Kirwan 4817,-19.305769,146.733837,Australia,138 Thuringowa Drive Kirwan 4817 QLD Australia,2,Outer Regional,34,Ps,Psychiatric public,Yes,No,No,No,F,Psychiatric,PS
379,QLD,KOWANYAMA PRIMARY HEALTH CARE CENTRE,,310000253,,Y,Hospital,,Carrington Street,Kowanyama 4871,-15.476058,141.746687,Australia,Carrington Street Kowanyama 4871 QLD Australia,4,Very remote,1,VS,Very small public,Yes,No,No,No,G,Un-peered and other,SM
255,QLD,LAIDLEY HOSPITAL,,310000047,,Y,Hospital,,75 William Street,Laidley 4341,-27.632553,152.401252,Australia,75 William Street Laidley 4341 QLD Australia,1,Inner Regional,15,S2,Other small public acute,Yes,No,No,No,D2,Small non-acute,SM
387,QLD,LAURA PRIMARY HEALTH CARE CENTRE,,310000915,,Y,Hospital,,Queensland Country Women's Association Hall,Glenmorgan 4423,44.64357,-64.017433,Australia,Queensland Country Women's Association Hall Glenmorgan 4423 QLD Australia,4,Very remote,1,VS,Very small public,Yes,No,No,No,G,Un-peered and other,SM
366,QLD,LOCKHART RIVER PRIMARY HEALTH CARE CENTRE,,310000233,,Y,Hospital,,Paytam Street,Lockhart River 4871,-12.786663,143.344306,Australia,Paytam Street Lockhart River 4871 QLD Australia,4,Very remote,1,VS,Very small public,Yes,No,No,No,G,Un-peered and other,SM
247,QLD,LOGAN HOSPITAL,21,310000029,,,Hospital,,Corner of Armstrong and Loganlea Roads,Meadowbrook 4131,-27.67029,153.1415558,Australia,Corner of Armstrong and Loganlea Roads Meadowbrook 4131 QLD Australia,0,Major Cities,332,L,Large public acute,Yes,Yes,Yes,Yes,A1,Principal referral,LG
322,QLD,LONGREACH HOSPITAL,,310000156,,Y,Hospital,,Jabiru Street,Longreach 4730,,,Australia,Jabiru Street Longreach 4730 QLD Australia,4,Very remote,31,S1,Small public acute with surgery/obstetrics,Yes,No,No,No,D3,Small remote acute,SM
330,QLD,MACKAY BASE HOSPITAL,14,310000172,,,Hospital,,475 Bridge Road,Mackay 4740,-21.159674,149.172987,Australia,475 Bridge Road Mackay 4740 QLD Australia,1,Inner Regional,182,L,Large public acute,Yes,Yes,Yes,Yes,A1,Principal referral,LG
388,QLD,MAGNETIC ISLAND HEALTH SERVICE CENTRE,,310000916,,Y,Hospital,,1 Gladwell Street,Laura 4871,-38.38224,144.798935,Australia,1 Gladwell Street Laura 4871 QLD Australia,2,Outer Regional,0,OT,Outpatient hospital,No,No,No,No,G,Un-peered and other,SP
394,QLD,MALAKOOLA PRIMARY HEALTH CARE CENTRE,,310000928,,Y,Hospital,,27 Kuradilla Street,Ravenshoe 4888,-17.607123,145.482074,Australia,27 Kuradilla Street Ravenshoe 4888 QLD Australia,4,Very remote,1,OT,Outpatient hospital,Yes,No,No,No,G,Un-peered and other,SP
389,QLD,MALANDA OUTPATIENTS CLINIC,,310000917,,Y,Hospital,,76 Sooning Street,Nelly Bay 4819,-19.15745,146.849854,Australia,76 Sooning Street Nelly Bay 4819 QLD Australia,2,Outer Regional,0,OT,Outpatient hospital,No,No,No,No,G,Un-peered and other,SP
256,QLD,MALENY HOSPITAL,,310000048,,Y,Hospital,,Bean Street,Maleny 4552,-26.755055,152.845489,Australia,Bean Street Maleny 4552 QLD Australia,1,Inner Regional,24,S2,Other small public acute,Yes,No,No,No,D2,Small non-acute,SM
399,QLD,MAPOON PRIMARY HEALTH CARE CENTRE,,310000965,,Y,Hospital,,Main Street,Mapoon 4874,-12.15903,142.81045,Australia,Main Street Mapoon 4874 QLD Australia,4,Very remote,1,OT,Outpatient hospital,No,No,No,No,G,Un-peered and other,SP
356,QLD,MAREEBA HOSPITAL,,310000223,,Y,Hospital,,21 Lloyd Street,Mareeba 4880,,,Australia,21 Lloyd Street Mareeba 4880 QLD Australia,2,Outer Regional,48,S1,Small public acute with surgery/obstetrics,Yes,No,No,No,C2,Medium (group 2),SM
245,QLD,MARIE ROSE CENTRE,,310000025,,Y,Hospital,,Corner of Petrie Street and Oxley Parade,Dunwich 4183,-27.4975358,153.399811,Australia,Corner of Petrie Street and Oxley Parade Dunwich 4183 QLD Australia,2,Outer Regional,0,VS,Very small public,Yes,No,No,No,G,Un-peered and other,SM
269,QLD,MARYBOROUGH HOSPITAL,18,310000071,,,Hospital,,185 Walker Street,Maryborough 4650,-25.5237264,152.6905369,Australia,185 Walker Street Maryborough 4650 QLD Australia,1,Inner Regional,98,M,Medium public acute,Yes,Yes,Yes,No,C1,Medium (group 1),LG
234,QLD,MATER ADULT HOSPITAL,15,310000001,,,Hospital,,Raymond Terrace,South Brisbane 4101,-27.484992,153.02786,Australia,Raymond Terrace South Brisbane 4101 QLD Australia,0,Major Cities,262,L,Large public acute,Yes,Yes,Yes,Yes,A1,Principal referral,LG
235,QLD,MATER CHILDREN'S HOSPITAL,34,310000002,,,Hospital,,Raymond Terrace,South Brisbane 4101,-27.484992,153.02786,Australia,Raymond Terrace South Brisbane 4101 QLD Australia,0,Major Cities,161,W3,Childrens,Yes,Yes,Yes,Yes,A2,Specialist womens and childrens,WC
236,QLD,MATER MOTHERS' HOSPITAL,,310000003,,Y,Hospital,,Raymond Terrace,South Brisbane 4101,-27.484992,153.02786,Australia,Raymond Terrace South Brisbane 4101 QLD Australia,0,Major Cities,128,W1,Womens,Yes,No,Yes,Yes,A2,Specialist womens and childrens,WC
390,QLD,MEANDARRA OUTPATIENTS CLINIC,,310000919,,Y,Hospital,,3/15 Catherine Street,Malanda 4885,-17.35387,145.593994,Australia,3/15 Catherine Street Malanda 4885 QLD Australia,3,Remote,0,OT,Outpatient hospital,No,No,No,No,G,Un-peered and other,SP
281,QLD,MILES HOSPITAL,,310000097,,Y,Hospital,,26 Colamba Street,Miles 4415,-26.655199,150.192734,Australia,26 Colamba Street Miles 4415 QLD Australia,2,Outer Regional,13,S2,Other small public acute,Yes,No,No,No,D1,Small regional acute,SM
391,QLD,MILLAA MILLAA OUTPATIENTS CLINIC,,310000920,,Y,Hospital,,Gibson Street,Meandarra 4422,-27.326668,149.881207,Australia,Gibson Street Meandarra 4422 QLD Australia,2,Outer Regional,0,OT,Outpatient hospital,No,No,No,No,G,Un-peered and other,SP
282,QLD,MILLMERRAN HOSPITAL,,310000098,,Y,Hospital,,50 Commens Street,Millmerran 4357,-27.8782099,151.2635958,Australia,50 Commens Street Millmerran 4357 QLD Australia,1,Inner Regional,11,S2,Other small public acute,Yes,No,No,No,D1,Small regional acute,SM
296,QLD,MITCHELL HOSPITAL,,310000116,,Y,Hospital,,95 Ann Street,Mitchell 4465,-26.481906,147.969779,Australia,95 Ann Street Mitchell 4465 QLD Australia,4,Very remote,13,S2,Other small public acute,Yes,No,No,No,D3,Small remote acute,SM
270,QLD,MONTO HOSPITAL,,310000072,,Y,Hospital,,35 Flinders Street,Monto 4630,-24.86137,151.108705,Australia,35 Flinders Street Monto 4630 QLD Australia,2,Outer Regional,14,S2,Other small public acute,Yes,No,No,No,D2,Small non-acute,SM
396,QLD,MOONIE OUTPATIENTS CLINIC,,310000935,,Y,Hospital,,Moonie Highway,Moonie 4406,-27.717177,150.369754,Australia,Moonie Highway Moonie 4406 QLD Australia,2,Outer Regional,0,OT,Outpatient hospital,No,No,No,No,G,Un-peered and other,SP
331,QLD,MORANBAH HOSPITAL,,310000173,,Y,Hospital,,Elliott Street,Moranbah 4744,,,Australia,Elliott Street Moranbah 4744 QLD Australia,2,Outer Regional,12,S2,Other small public acute,Yes,No,No,No,D1,Small regional acute,SM
375,QLD,MORNINGTON ISLAND HOSPITAL,,310000249,,Y,Hospital,,Lardyl Street,Mornington Island 4871,-16.665637,139.186524,Australia,Lardyl Street Mornington Island 4871 QLD Australia,4,Very remote,11,S2,Other small public acute,Yes,No,No,No,D3,Small remote acute,SM
392,QLD,MORVEN OUTPATIENTS CLINIC,,310000921,,Y,Hospital,,45 Palm Avenue,Millaa Millaa 4886,-17.51446,145.608063,Australia,45 Palm Avenue Millaa Millaa 4886 QLD Australia,4,Very remote,0,OT,Outpatient hospital,No,No,No,No,G,Un-peered and other,SP
357,QLD,MOSSMAN HOSPITAL,,310000224,,Y,Hospital,,9 Hospital Street,Mossman 4873,-16.4639,145.368256,Australia,9 Hospital Street Mossman 4873 QLD Australia,2,Outer Regional,24,S1,Small public acute with surgery/obstetrics,Yes,No,No,No,E2,Multi-purpose services,SM
358,QLD,MOUNT GARNET OUTPATIENTS CLINIC,,310000225,,Y,Hospital,,2 Galena Street,Mount Garnet 4872,-17.6785076,145.1130733,Australia,2 Galena Street Mount Garnet 4872 QLD Australia,3,Remote,0,OT,Outpatient hospital,No,No,No,No,G,Un-peered and other,SP
372,QLD,MOUNT ISA HOSPITAL,20,310000246,,,Hospital,,30 Camooweal Street,Mount Isa 4825,-20.723084,139.493519,Australia,30 Camooweal Street Mount Isa 4825 QLD Australia,3,Remote,86,M,Medium public acute,Yes,Yes,Yes,Yes,B2,Large regional and remote,LG
310,QLD,MOUNT MORGAN HOSPITAL,,310000139,,Y,Hospital,,Black Street,Mount Morgan 4714,-23.645829,150.391843,Australia,Black Street Mount Morgan 4714 QLD Australia,1,Inner Regional,10,S2,Other small public acute,Yes,No,No,No,D2,Small non-acute,SM
271,QLD,MOUNT PERRY HEALTH CENTRE,,310000073,,Y,Hospital,,150 Heussman Street,Mount Perry 4671,-25.1812741,151.6467064,Australia,150 Heussman Street Mount Perry 4671 QLD Australia,2,Outer Regional,2,VS,Very small public,Yes,No,No,No,G,Un-peered and other,SM
311,QLD,MOURA HOSPITAL,,310000140,,Y,Hospital,,14 Nott Street,Moura 4718,-24.57901,149.977698,Australia,14 Nott Street Moura 4718 QLD Australia,2,Outer Regional,10,S2,Other small public acute,Yes,No,No,No,D1,Small regional acute,SM
272,QLD,MUNDUBBERA HOSPITAL,,310000074,,Y,Hospital,,96 Leichhardt Street,Mundubbera 4626,-25.587111,151.294128,Australia,96 Leichhardt Street Mundubbera 4626 QLD Australia,2,Outer Regional,6,S2,Other small public acute,Yes,No,No,No,E2,Multi-purpose services,SM
297,QLD,MUNGINDI HOSPITAL,,310000117,,Y,Hospital,,Barwon Street,Mungindi 2406,-28.977707,148.994661,Australia,Barwon Street Mungindi 2406 QLD Australia,3,Remote,8,S2,Other small public acute,Yes,No,No,No,G,Un-peered and other,SM
273,QLD,MURGON HOSPITAL,,310000075,,Y,Hospital,,Coronation Drive,Murgon 4605,-26.238049,151.947373,Australia,Coronation Drive Murgon 4605 QLD Australia,2,Outer Regional,15,S2,Other small public acute,Yes,No,No,No,D1,Small regional acute,SM
323,QLD,MUTTABURRA PRIMARY HEALTH CENTRE,,310000157,,Y,Hospital,,Edkins Street,Muttaburra 4732,-22.593753,144.546921,Australia,Edkins Street Muttaburra 4732 QLD Australia,4,Very remote,0,OT,Outpatient hospital,No,No,No,No,G,Un-peered and other,SP
257,QLD,NAMBOUR HOSPITAL,19,310000049,,,Hospital,,Hospital Road,Nambour 4560,-26.622058,152.953151,Australia,Hospital Road Nambour 4560 QLD Australia,0,Major Cities,441,L,Large public acute,Yes,Yes,Yes,Yes,A1,Principal referral,LG
274,QLD,NANANGO HOSPITAL,,310000076,,Y,Hospital,,135 Brisbane Street,Nanango 4615,-26.66646,152.008316,Australia,135 Brisbane Street Nanango 4615 QLD Australia,1,Inner Regional,10,S2,Other small public acute,Yes,No,No,No,D2,Small non-acute,SM
373,QLD,NORMANTON HOSPITAL,,310000247,,Y,Hospital,,Brown Street,Normanton 4890,-17.671507,141.080517,Australia,Brown Street Normanton 4890 QLD Australia,4,Very remote,14,S2,Other small public acute,Yes,No,No,No,D3,Small remote acute,SM
283,QLD,OAKEY HOSPITAL,,310000099,,Y,Hospital,,Corner Beale and Fitzpatrick Streets,Oakey 4401,,,Australia,Corner Beale and Fitzpatrick Streets Oakey 4401 QLD Australia,1,Inner Regional,9,S2,Other small public acute,Yes,No,No,No,D2,Small non-acute,SM
380,QLD,PORMPURAAW PRIMARY HEALTH CARE CENTRE,,310000254,,Y,Hospital,,Korka Street,Pormpuraaw 4871,-14.899592,141.621991,Australia,Korka Street Pormpuraaw 4871 QLD Australia,4,Very remote,1,VS,Very small public,Yes,No,No,No,G,Un-peered and other,SM
239,QLD,PRINCESS ALEXANDRA HOSPITAL,10,310000011,,,Hospital,,199 Ipswich Road,Woolloongabba 4102,-27.496084,153.034923,Australia,199 Ipswich Road Woolloongabba 4102 QLD Australia,0,Major Cities,944,PR,Principal referral,Yes,Yes,Yes,Yes,A1,Principal referral,PR
332,QLD,PROSERPINE HOSPITAL,,310000174,,Y,Hospital,,26-34 Taylor Street,Proserpine 4800,-20.399639,148.584305,Australia,26-34 Taylor Street Proserpine 4800 QLD Australia,2,Outer Regional,33,S1,Small public acute with surgery/obstetrics,Yes,No,No,No,C2,Medium (group 2),SM
243,QLD,QUEEN ELIZABETH II JUBILEE HOSPITAL,16,310000022,,,Hospital,,Corner of Kessels and Troughton Roads,Coopers Plains 4108,-27.5592594,153.0489655,Australia,Corner of Kessels and Troughton Roads Coopers Plains 4108 QLD Australia,0,Major Cities,165,L,Large public acute,Yes,Yes,Yes,Yes,A1,Principal referral,LG
298,QLD,QUILPIE HOSPITAL,,310000118,,Y,Hospital,,30 Gyrica Street,Quilpie 4480,,,Australia,30 Gyrica Street Quilpie 4480 QLD Australia,4,Very remote,6,VS,Very small public,Yes,No,No,No,E2,Multi-purpose services,SM
393,QLD,RAVENSHOE OUTPATIENTS CLINIC,,310000924,,Y,Hospital,,Warrego Highway,Morven 4468,-26.411648,147.103697,Australia,Warrego Highway Morven 4468 QLD Australia,2,Outer Regional,0,OT,Outpatient hospital,No,No,No,No,G,Un-peered and other,SP
241,QLD,REDCLIFFE HOSPITAL,28,310000016,,,Hospital,,Anzac Avenue,Redcliffe 4020,-27.229972,153.107761,Australia,Anzac Avenue Redcliffe 4020 QLD Australia,0,Major Cities,352,L,Large public acute,Yes,Yes,Yes,Yes,A1,Principal referral,LG
246,QLD,REDLAND HOSPITAL,26,310000028,,,Hospital,,Weippin Street,Cleveland 4163,-27.541482,153.250821,Australia,Weippin Street Cleveland 4163 QLD Australia,0,Major Cities,151,M,Medium public acute,Yes,Yes,Yes,Yes,B1,Large Major cities,LG
374,QLD,RICHMOND HOSPITAL,,310000248,,Y,Hospital,,Gallagher Drive,Richmond 4822,-25.001621,151.93177,Australia,Gallagher Drive Richmond 4822 QLD Australia,4,Very remote,10,VS,Very small public,Yes,No,No,No,G,Un-peered and other,SM
395,QLD,ROBINA HOSPITAL,26,310000934,,,Hospital,,313 Moun-Ding Street,Napranum 4874,-12.684401,141.888982,Australia,313 Moun-Ding Street Napranum 4874 QLD Australia,0,Major Cities,454,M,Medium public acute,Yes,Yes,Yes,No,A1,Principal referral,LG
312,QLD,ROCKHAMPTON BASE HOSPITAL,17,310000141,,,Hospital,,Canning Street,Rockhampton 4700,-23.385269,150.500171,Australia,Canning Street Rockhampton 4700 QLD Australia,1,Inner Regional,246,L,Large public acute,Yes,Yes,Yes,Yes,A1,Principal referral,LG
299,QLD,ROMA HOSPITAL,,310000119,,Y,Hospital,,197-234 Mcdowall Street,Roma 4455,,,Australia,197-234 Mcdowall Street Roma 4455 QLD Australia,2,Outer Regional,52,S1,Small public acute with surgery/obstetrics,Yes,No,No,No,D1,Small regional acute,SM
343,QLD,ROYAL BRISBANE & WOMEN'S HOSPITAL,14,310000201,,,Hospital,,Butterfield Street,Herston 4006,-27.444728,153.020191,Australia,Butterfield Street Herston 4006 QLD Australia,0,Major Cities,1024,PR,Principal referral,Yes,Yes,Yes,Yes,A1,Principal referral,PR
238,QLD,ROYAL CHILDREN'S HOSPITAL,13,310000007,,,Hospital,,Herston Road,Herston 4006,-27.449736,153.026814,Australia,Herston Road Herston 4006 QLD Australia,0,Major Cities,201,W3,Childrens,Yes,Yes,Yes,Yes,A2,Specialist womens and childrens,WC
333,QLD,SARINA HOSPITAL,,310000175,,Y,Hospital,,1 Hospital Street,Sarina 4737,,,Australia,1 Hospital Street Sarina 4737 QLD Australia,2,Outer Regional,16,S2,Other small public acute,Yes,No,No,No,D1,Small regional acute,SM
313,QLD,SPRINGSURE HOSPITAL,,310000142,,Y,Hospital,,Woodbine Street,Springsure 4722,-24.120066,148.085764,Australia,Woodbine Street Springsure 4722 QLD Australia,3,Remote,12,S2,Other small public acute,Yes,No,No,No,G,Un-peered and other,SM
300,QLD,ST GEORGE HOSPITAL,,310000120,,Y,Hospital,,1 Victoria Street,St George 4487,,,Australia,1 Victoria Street St George 4487 QLD Australia,3,Remote,34,S1,Small public acute with surgery/obstetrics,Yes,No,No,No,D3,Small remote acute,SM
284,QLD,STANTHORPE HOSPITAL,,310000100,,Y,Hospital,,8 McGregor Terrace,Stanthorpe 4380,-28.66095,151.928543,Australia,8 McGregor Terrace Stanthorpe 4380 QLD Australia,2,Outer Regional,46,S1,Small public acute with surgery/obstetrics,Yes,No,No,No,D1,Small regional acute,SM
301,QLD,SURAT HOSPITAL,,310000121,,Y,Hospital,,Ivan Street,Surat 4417,,,Australia,Ivan Street Surat 4417 QLD Australia,3,Remote,7,S2,Other small public acute,Yes,No,No,No,G,Un-peered and other,SM
324,QLD,TAMBO PRIMARY HEALTH CENTRE,,310000158,,Y,Hospital,,Garden Street,Tambo 4478,,,Australia,Garden Street Tambo 4478 QLD Australia,4,Very remote,0,OT,Outpatient hospital,No,No,No,No,G,Un-peered and other,SP
285,QLD,TARA HOSPITAL,,310000101,,Y,Hospital,,15 Bilton Street,Tara 4421,-27.274079,150.455735,Australia,15 Bilton Street Tara 4421 QLD Australia,2,Outer Regional,15,S2,Other small public acute,Yes,No,No,No,D1,Small regional acute,SM
286,QLD,TAROOM HOSPITAL,,310000102,,Y,Hospital,,Miller Street,Taroom 4420,-25.638949,149.798008,Australia,Miller Street Taroom 4420 QLD Australia,3,Remote,13,S2,Other small public acute,Yes,No,No,No,D3,Small remote acute,SM
287,QLD,TEXAS HOSPITAL,,310000103,,Y,Hospital,,Mingoola Road,Texas 4385,-28.858034,151.178874,Australia,Mingoola Road Texas 4385 QLD Australia,2,Outer Regional,10,S2,Other small public acute,Yes,No,No,No,E2,Multi-purpose services,SM
302,QLD,THARGOMINDAH HOSPITAL,,310000122,,Y,Hospital,,Dowling Street,Thargomindah 4492,-27.995679,143.825265,Australia,Dowling Street Thargomindah 4492 QLD Australia,4,Very remote,0,OT,Outpatient hospital,No,No,No,No,G,Un-peered and other,SP
403,QLD,THE PARK CENTRE FOR MENTAL HEALTH,,340000751,,Y,Hospital,,Corner of Ellerton Drive and Wolston Park Road,Wacol 4076,,,Australia,Corner of Ellerton Drive and Wolston Park Road Wacol 4076 QLD Australia,0,Major Cities,176,Ps,Psychiatric public,Yes,No,No,No,F,Psychiatric,PS
237,QLD,THE PRINCE CHARLES HOSPITAL,20,310000004,,,Hospital,,Rode Road,Chermside 4032,-27.391664,153.013247,Australia,Rode Road Chermside 4032 QLD Australia,0,Major Cities,624,PR,Principal referral,Yes,Yes,Yes,Yes,A1,Principal referral,PR
342,QLD,THE TOWNSVILLE HOSPITAL,16,310000200,,,Hospital,,100 Angus Smith Drive,Douglas 4814,-19.321839,146.758135,Australia,100 Angus Smith Drive Douglas 4814 QLD Australia,2,Outer Regional,624,PR,Principal referral,Yes,Yes,Yes,Yes,A1,Principal referral,PR
314,QLD,THEODORE HOSPITAL,,310000143,,Y,Hospital,,The Boulevard,Theodore 4719,-24.948127,150.075444,Australia,The Boulevard Theodore 4719 QLD Australia,2,Outer Regional,6,S2,Other small public acute,Yes,No,No,No,D1,Small regional acute,SM
359,QLD,THURSDAY ISLAND HOSPITAL,,310000226,,Y,Hospital,,163 Douglas Street,Thursday Island 4875,-10.58798,142.211151,Australia,163 Douglas Street Thursday Island 4875 QLD Australia,4,Very remote,38,S1,Small public acute with surgery/obstetrics,Yes,No,No,No,D2,Small non-acute,SM
288,QLD,TOOWOOMBA HOSPITAL,18,310000104,,,Hospital,,Pechey Street,Toowoomba 4350,-27.570523,151.946729,Australia,Pechey Street Toowoomba 4350 QLD Australia,1,Inner Regional,305,L,Large public acute,Yes,Yes,Yes,Yes,A1,Principal referral,LG
360,QLD,TULLY HOSPITAL,,310000227,,Y,Hospital,,Bryant Street,Tully 4854,,,Australia,Bryant Street Tully 4854 QLD Australia,2,Outer Regional,20,S1,Small public acute with surgery/obstetrics,Yes,No,No,No,D1,Small regional acute,SM
303,QLD,WALLUMBILLA OUTPATIENTS CLINIC,,310000123,,Y,Hospital,,Raslie Road,Wallumbilla 4428,-26.501779,149.141749,Australia,Raslie Road Wallumbilla 4428 QLD Australia,3,Remote,0,OT,Outpatient hospital,No,No,No,No,G,Un-peered and other,SP
290,QLD,WANDOAN HOSPITAL,,310000106,,Y,Hospital,,14 Henderson Road,Wandoan 4419,-26.1187555,149.9562992,Australia,14 Henderson Road Wandoan 4419 QLD Australia,3,Remote,2,OT,Outpatient hospital,No,No,No,No,G,Un-peered and other,SP
289,QLD,WARWICK HOSPITAL,,310000105,,Y,Hospital,,56 Locke Street,Warwick 4370,-28.22438,152.017944,Australia,56 Locke Street Warwick 4370 QLD Australia,1,Inner Regional,66,S1,Small public acute with surgery/obstetrics,Yes,No,No,No,C2,Medium (group 2),SM
361,QLD,WEIPA HOSPITAL,,310000228,,Y,Hospital,,Lot 407 John Evans Drive,Weipa 4874,-12.654164,141.858277,Australia,Lot 407 John Evans Drive Weipa 4874 QLD Australia,4,Very remote,14,S1,Small public acute with surgery/obstetrics,Yes,No,No,No,D3,Small remote acute,SM
328,QLD,WINDORAH CLINIC,,310000162,,Y,Hospital,,Victoria Street,Windorah 4481,-25.421085,142.655706,Australia,Victoria Street Windorah 4481 QLD Australia,4,Very remote,0,OT,Outpatient hospital,No,No,No,No,G,Un-peered and other,SP
325,QLD,WINTON HOSPITAL,,310000159,,Y,Hospital,,Bloomfield Street,Winton 4735,-27.533232,153.266585,Australia,Bloomfield Street Winton 4735 QLD Australia,4,Very remote,8,S2,Other small public acute,Yes,No,No,No,D2,Small non-acute,SM
275,QLD,WONDAI HOSPITAL,,310000077,,Y,Hospital,,Bramston Street,Wondai 4606,-26.321374,151.878202,Australia,Bramston Street Wondai 4606 QLD Australia,2,Outer Regional,5,VS,Very small public,Yes,No,No,No,G,Un-peered and other,SM
316,QLD,WOORABINDA HOSPITAL,,310000145,,Y,Hospital,,1 Munns Drive,Woorabinda 4702,,,Australia,1 Munns Drive Woorabinda 4702 QLD Australia,3,Remote,7,S2,Other small public acute,Yes,No,No,No,E2,Multi-purpose services,SM
365,QLD,WUJAL WUJAL COMMUNITY HOSPITAL,,310000232,,Y,Hospital,,100 Douglas Street,Wujal Wujal 4895,-15.945176,145.316638,Australia,100 Douglas Street Wujal Wujal 4895 QLD Australia,3,Remote,1,VS,Very small public,Yes,No,No,No,G,Un-peered and other,SM
244,QLD,WYNNUM HOSPITAL,,310000024,,Y,Hospital,,Whites Road,Lota 4179,-27.469725,153.1833,Australia,Whites Road Lota 4179 QLD Australia,0,Major Cities,21,N1,Non-acute public-rehabilitation and GEM,Yes,No,No,No,G,Un-peered and other,SP
327,QLD,YARAKA CLINIC,,310000161,,Y,Hospital,,Jarley Street,Yaraka 4702,,,Australia,Jarley Street Yaraka 4702 QLD Australia,4,Very remote,0,OT,Outpatient hospital,No,No,No,No,G,Un-peered and other,SP
362,QLD,YARRABAH HOSPITAL,,310000229,,Y,Hospital,,1 Bukki Road,Yarrabah 4871,,,Australia,1 Bukki Road Yarrabah 4871 QLD Australia,2,Outer Regional,0,S2,Other small public acute,Yes,No,No,No,D1,Small regional acute,SM
444,SA,Andamooka Outpost Hospital,16,41NF00046,,Y,Hospital,,,Andamooka 5722,-30.749052,137.164287,Australia, Andamooka 5722 SA Australia,4,Very remote,2,OT,Outpatient hospital,No,No,No,No,G,Un-peered and other,SP
471,SA,Angaston District Hospital,16,41WK00049,,Y,Hospital,,29 North ST,Angaston 5353,,,Australia,29 North ST Angaston 5353 SA Australia,1,Inner Regional,32,S1,Small public acute with surgery/obstetrics,Yes,No,Yes,No,D1,Small regional acute,SM
472,SA,Balaklava Soldier's Memorial District Hospital,16,41WK00052,,Y,Hospital,,16 War Memorial DR,Balaklava 5461,,,Australia,16 War Memorial DR Balaklava 5461 SA Australia,1,Inner Regional,31,S2,Other small public acute,Yes,No,Yes,No,D1,Small regional acute,SM
433,SA,Booleroo Centre District Hospital and Health Services,16,41MN00067,,Y,Hospital,,Stephens ST,Booleroo Centre 5482,,,Australia,Stephens ST Booleroo Centre 5482 SA Australia,2,Outer Regional,23,S2,Other small public acute,Yes,No,No,No,D2,Small non-acute,SM
463,SA,Bordertown Memorial Hospital,16,41SE00070,,Y,Hospital,,23 South TCE,Bordertown 5268,-36.3127676,140.7661244,Australia,23 South TCE Bordertown 5268 SA Australia,2,Outer Regional,49,S1,Small public acute with surgery/obstetrics,Yes,No,Yes,No,D2,Small non-acute,SM
473,SA,Burra Hospital,16,41WK00073,,Y,Hospital,,46 Commercial ST,Burra 5417,,,Australia,46 Commercial ST Burra 5417 SA Australia,2,Outer Regional,7,VS,Very small public,Yes,No,No,No,D1,Small regional acute,SM
416,SA,Ceduna District Health Service,16,41EY00169,,Y,Hospital,,3 Eyre HWY,Ceduna 5690,-32.122916,133.697518,Australia,3 Eyre HWY Ceduna 5690 SA Australia,4,Very remote,21,S1,Small public acute with surgery/obstetrics,Yes,No,Yes,No,E2,Multi-purpose services,SM
410,SA,Central Eyre Peninsula Hospital (Wudinna),16,41EY00076,,Y,Hospital,,16-24 Richards AV,Wudinna 5652,,,Australia,16-24 Richards AV Wudinna 5652 SA Australia,4,Very remote,13,VS,Very small public,Yes,No,No,No,G,Un-peered and other,SM
477,SA,Central Yorke Peninsula Hospital (Maitland),16,41WK00142,,Y,Hospital,,68 Robert ST,Maitland 5573,,,Australia,68 Robert ST Maitland 5573 SA Australia,2,Outer Regional,33,S2,Other small public acute,Yes,No,No,No,D2,Small non-acute,SM
474,SA,Clare Hospital,16,41WK00079,,Y,Hospital,,47 Farrel Flat RD,Clare 5453,,,Australia,47 Farrel Flat RD Clare 5453 SA Australia,2,Outer Regional,33,S1,Small public acute with surgery/obstetrics,Yes,No,Yes,No,D1,Small regional acute,SM
411,SA,Cleve District Health and Aged Care,16,41EY00082,,Y,Hospital,,North TCE,Cleve 5640,-33.699043,136.493416,Australia,North TCE Cleve 5640 SA Australia,3,Remote,20,S2,Other small public acute,Yes,No,No,No,D2,Small non-acute,SM
445,SA,Coober Pedy Hospital & Health Services,16,41NF00085,,Y,Hospital,,Lot 89 Hospital RD,Coober Pedy 5723,,,Australia,Lot 89 Hospital RD Coober Pedy 5723 SA Australia,4,Very remote,15,S2,Other small public acute,Yes,No,No,No,D3,Small remote acute,SM
412,SA,Cowell District Hospital,16,41EY00088,,Y,Hospital,,17 South TCE,Cowell 5602,-33.68553,136.924386,Australia,17 South TCE Cowell 5602 SA Australia,3,Remote,8,VS,Very small public,Yes,No,No,No,G,Un-peered and other,SM
434,SA,Crystal Brook and District Hospital,16,41MN00091,,Y,Hospital,,Edmund TCE,Crystal Brook 5523,-33.35468,138.211187,Australia,Edmund TCE Crystal Brook 5523 SA Australia,2,Outer Regional,13,S1,Small public acute with surgery/obstetrics,Yes,No,Yes,No,D2,Small non-acute,SM
413,SA,Cummins and District Memorial Hospital,16,41EY00094,,Y,Hospital,,19-21 Tumby Bay RD,Cummins 5631,,,Australia,19-21 Tumby Bay RD Cummins 5631 SA Australia,3,Remote,19,S2,Other small public acute,Yes,No,No,No,D2,Small non-acute,SM
414,SA,Elliston Hospital,16,41EY00097,,Y,Hospital,,4-6 Memorial DR,Elliston 5670,,,Australia,4-6 Memorial DR Elliston 5670 SA Australia,4,Very remote,6,VS,Very small public,Yes,No,No,No,G,Un-peered and other,SM
475,SA,Eudunda Hospital,16,41WK00100,,Y,Hospital,,40 Ward ST,Eudunda 5374,,,Australia,40 Ward ST Eudunda 5374 SA Australia,1,Inner Regional,8,VS,Very small public,Yes,No,No,No,G,Un-peered and other,SM
460,SA,Flinders Medical Centre,16,41SA00005,,Y,Hospital,,Flinders DR,Bedford Park 5042,-35.024431,138.567918,Australia,Flinders DR Bedford Park 5042 SA Australia,0,Major Cities,589.5,PR,Principal referral,Yes,Yes,Yes,Yes,A1,Principal referral,PR
470,SA,Gawler Health Service,16,41WK00020,,Y,Hospital,,21 Hutchinson RD,Gawler East 5118,-34.594101,138.7552185,Australia,21 Hutchinson RD Gawler East 5118 SA Australia,0,Major Cities,62,S1,Small public acute with surgery/obstetrics,Yes,Yes,Yes,No,C2,Medium (group 2),SM
483,SA,Glenside Hospital,16,44CA00300,,Y,Hospital,,226 Fullarton RD,Glenside 5065,,,Australia,226 Fullarton RD Glenside 5065 SA Australia,0,Major Cities,125,Ps,Psychiatric public,Yes,No,No,No,F,Psychiatric,PS
420,SA,Gumeracha District Soldiers Memorial Hospital,16,41HM00106,,Y,Hospital,,2 Albert ST,Gumeracha 5233,,,Australia,2 Albert ST Gumeracha 5233 SA Australia,1,Inner Regional,17,S2,Other small public acute,Yes,No,No,No,G,Un-peered and other,SM
404,SA,Hampstead Rehabilitation Centre,16,41CA00008,,Y,Hospital,,205 Hampstead RD,Northfield 5085,,,Australia,205 Hampstead RD Northfield 5085 SA Australia,0,Major Cities,153,N2,Non-acute public-mixed subacute and non-acute,Yes,No,No,No,E4,Rehabilitation,SP
446,SA,Hawker Memorial Hospital,16,41NF00103,,Y,Hospital,,Cradock RD,Hawker 5434,,,Australia,Cradock RD Hawker 5434 SA Australia,2,Outer Regional,4,VS,Very small public,Yes,No,No,No,G,Un-peered and other,SM
435,SA,Jamestown Hospital & Health Service,16,41MN00109,,Y,Hospital,,South TCE,Jamestown 5491,,,Australia,South TCE Jamestown 5491 SA Australia,2,Outer Regional,22,S1,Small public acute with surgery/obstetrics,Yes,No,Yes,No,D2,Small non-acute,SM
421,SA,Kangaroo Island Health Service,16,41HM00112,,Y,Hospital,,3 The ESP,Kingscote 5223,-35.834849,137.158599,Australia,3 The ESP Kingscote 5223 SA Australia,3,Remote,15,S1,Small public acute with surgery/obstetrics,Yes,No,Yes,No,D2,Small non-acute,SM
476,SA,Kapunda Hospital,16,41WK00115,,Y,Hospital,,26 Nash ST,Kapunda 5373,,,Australia,26 Nash ST Kapunda 5373 SA Australia,1,Inner Regional,27,S1,Small public acute with surgery/obstetrics,Yes,No,Yes,No,D1,Small regional acute,SM
422,SA,Karoonda & District Soldiers' Memorial Hospital,16,41HM00118,,Y,Hospital,,13 Stokes RD,Karoonda 5307,,,Australia,13 Stokes RD Karoonda 5307 SA Australia,2,Outer Regional,4,VS,Very small public,Yes,No,No,No,G,Un-peered and other,SM
415,SA,Kimba District Health and Aged Care,16,41EY00121,,Y,Hospital,,15 Martin TCE,Kimba 5641,-33.140953,136.411277,Australia,15 Martin TCE Kimba 5641 SA Australia,3,Remote,8,VS,Very small public,Yes,No,No,No,E2,Multi-purpose services,SM
464,SA,Kingston Soldiers' Memorial Hospital,16,41SE00124,,Y,Hospital,,Cnr Cooke & Young ST,Kingston SE 5275,,,Australia,Cnr Cooke & Young ST Kingston SE 5275 SA Australia,2,Outer Regional,10,S2,Other small public acute,Yes,No,No,No,D1,Small regional acute,SM
423,SA,Lameroo District Health Services,16,41HM00127,,Y,Hospital,,1A Vardon TCE,Lameroo 5302,-35.328058,140.517606,Australia,1A Vardon TCE Lameroo 5302 SA Australia,3,Remote,11,S2,Other small public acute,Yes,No,No,No,G,Un-peered and other,SM
436,SA,Laura & Districts Hospital,16,41MN00130,,Y,Hospital,,33 Mill ST,Laura 5480,,,Australia,33 Mill ST Laura 5480 SA Australia,2,Outer Regional,4,VS,Very small public,Yes,No,No,No,D2,Small non-acute,SM
447,SA,Leigh Creek Health Services,16,41NF00133,,Y,Hospital,,Black Oak DR,Leigh Creek 5731,,,Australia,Black Oak DR Leigh Creek 5731 SA Australia,4,Very remote,7,VS,Very small public,Yes,No,No,No,G,Un-peered and other,SM
457,SA,Loxton Hospital Complex,16,41RI00139,,Y,Hospital,,Drabsch ST,Loxton 5333,,,Australia,Drabsch ST Loxton 5333 SA Australia,2,Outer Regional,22,S1,Small public acute with surgery/obstetrics,Yes,No,Yes,No,D1,Small regional acute,SM
442,SA,Lyell McEwin Hospital,16,41NA00027,,Y,Hospital,,Haydown RD,Elizabeth Vale 5112,-34.7469597,138.6657562,Australia,Haydown RD Elizabeth Vale 5112 SA Australia,0,Major Cities,308,L,Large public acute,Yes,Yes,Yes,Yes,A1,Principal referral,LG
441,SA,McLaren Vale & Districts War Memorial Hospital Inc,16,41MO00036,,Y,Hospital,,Aldersley ST,McLaren Vale 5171,,,Australia,Aldersley ST McLaren Vale 5171 SA Australia,0,Major Cities,0,S2,Other small public acute,Yes,No,No,No,G,Un-peered and other,SM
426,SA,Meningie & Districts Memorial Hospital & Health Services,16,41HM00151,,Y,Hospital,,2 South TCE,Meningie 5264,,,Australia,2 South TCE Meningie 5264 SA Australia,2,Outer Regional,14,S2,Other small public acute,Yes,No,No,No,D1,Small regional acute,SM
465,SA,Millicent & District Hospital & Health Services,16,41SE00154,,Y,Hospital,,Mount Gambier RD,Millicent 5280,,,Australia,Mount Gambier RD Millicent 5280 SA Australia,2,Outer Regional,30,S1,Small public acute with surgery/obstetrics,Yes,No,Yes,No,D1,Small regional acute,SM
443,SA,Modbury Hospital,16,41NA00030,,Y,Hospital,,41-69 Smart RD,Modbury 5092,-34.8340988,138.6898346,Australia,41-69 Smart RD Modbury 5092 SA Australia,0,Major Cities,166,L,Large public acute,Yes,Yes,Yes,Yes,B1,Large Major cities,LG
427,SA,Mount Barker District Soldiers' Memorial Hospital,16,41HM00160,,Y,Hospital,,Wellington RD,Mount Barker 5251,-35.084662,138.871797,Australia,Wellington RD Mount Barker 5251 SA Australia,1,Inner Regional,40,S1,Small public acute with surgery/obstetrics,Yes,No,Yes,No,C2,Medium (group 2),SM
466,SA,Mount Gambier and Districts Health Service,16,41SE00163,,Y,Hospital,,276 Wehl ST,Mount Gambier 5290,-37.805075,140.7867,Australia,276 Wehl ST Mount Gambier 5290 SA Australia,2,Outer Regional,90,M,Medium public acute,Yes,Yes,Yes,No,B2,Large regional and remote,LG
428,SA,Mount Pleasant District Hospital,16,41HM00166,,Y,Hospital,,28 Hospital RD,Mount Pleasant 5235,-34.7732493,139.0539899,Australia,28 Hospital RD Mount Pleasant 5235 SA Australia,1,Inner Regional,27,S2,Other small public acute,Yes,No,Yes,No,D2,Small non-acute,SM
467,SA,Naracoorte Health Service,16,41SE00175,,Y,Hospital,,101 Jenkins TCE,Naracoorte 5271,,,Australia,101 Jenkins TCE Naracoorte 5271 SA Australia,2,Outer Regional,61,S1,Small public acute with surgery/obstetrics,Yes,No,Yes,No,C2,Medium (group 2),SM
462,SA,Noarlunga Public Hospital,16,41SA00033,,Y,Hospital,,Alexander Kelly DR,Noarlunga Centre 5168,-35.138867,138.499553,Australia,Alexander Kelly DR Noarlunga Centre 5168 SA Australia,0,Major Cities,80.2,M,Medium public acute,Yes,Yes,Yes,Yes,C1,Medium (group 1),LG
482,SA,Northern Yorke Peninsula Health Service (Wallaroo),16,41WK00247,,Y,Hospital,,1 Ernest TCE,Wallaroo 5556,-33.928679,137.635627,Australia,1 Ernest TCE Wallaroo 5556 SA Australia,2,Outer Regional,21,S1,Small public acute with surgery/obstetrics,Yes,No,Yes,No,C2,Medium (group 2),SM
484,SA,Oakden Hospital,16,44NA00028,,Y,Hospital,,200 Fosters RD,Oakden 5086,,,Australia,200 Fosters RD Oakden 5086 SA Australia,0,Major Cities,24,Ps,Psychiatric public,Yes,No,No,No,F,Psychiatric,PS
449,SA,Oodnadatta Hospital,16,41NF00181,,Y,Hospital,,Lot 7 First ST,Oodnadatta 5734,,,Australia,Lot 7 First ST Oodnadatta 5734 SA Australia,4,Very remote,2,VS,Very small public,Yes,No,No,No,G,Un-peered and other,SM
437,SA,Orroroo & District Health Service,16,41MN00184,,Y,Hospital,,Pekina RD,Orroroo 5431,,,Australia,Pekina RD Orroroo 5431 SA Australia,2,Outer Regional,8,VS,Very small public,Yes,No,No,No,G,Un-peered and other,SM
468,SA,Penola War Memorial Hospital,16,41SE00187,,Y,Hospital,,18 Church ST,Penola 5277,,,Australia,18 Church ST Penola 5277 SA Australia,2,Outer Regional,6,VS,Very small public,Yes,No,No,No,G,Un-peered and other,SM
438,SA,Peterborough Soldiers' Memorial Hospital,16,41MN00190,,Y,Hospital,,23 Hurlstone ST,Peterborough 5422,,,Australia,23 Hurlstone ST Peterborough 5422 SA Australia,2,Outer Regional,22,S2,Other small public acute,Yes,No,Yes,No,D2,Small non-acute,SM
430,SA,Pinnaroo Soldiers' Memorial Hospital,16,41HM00193,,Y,Hospital,,Bundey TCE,Pinnaroo 5304,,,Australia,Bundey TCE Pinnaroo 5304 SA Australia,3,Remote,8,VS,Very small public,Yes,No,No,No,G,Un-peered and other,SM
450,SA,Port Augusta Hospital & Regional Health Services,16,41NF00196,,Y,Hospital,,71 Hospital RD,Port Augusta 5700,-32.508975,137.776782,Australia,71 Hospital RD Port Augusta 5700 SA Australia,2,Outer Regional,61,M,Medium public acute,Yes,Yes,Yes,No,C1,Medium (group 1),LG
439,SA,Port Broughton District Hospital & Health Services,16,41MN00199,,Y,Hospital,,Bay ST,Port Broughton 5522,,,Australia,Bay ST Port Broughton 5522 SA Australia,2,Outer Regional,20,S2,Other small public acute,Yes,No,No,No,D1,Small regional acute,SM
417,SA,Port Lincoln Health Service,16,41EY00202,,Y,Hospital,,39 Oxford TCE,Port Lincoln 5606,-34.72401,135.850296,Australia,39 Oxford TCE Port Lincoln 5606 SA Australia,3,Remote,50,S1,Small public acute with surgery/obstetrics,Yes,Yes,Yes,No,D3,Small remote acute,SM
440,SA,Port Pirie Regional Health Service,16,41MN00205,,Y,Hospital,,Alexander ST,Port Pirie 5540,-33.1771944,138.0052611,Australia,Alexander ST Port Pirie 5540 SA Australia,2,Outer Regional,68.7,S1,Small public acute with surgery/obstetrics,Yes,Yes,Yes,No,C2,Medium (group 2),SM
407,SA,Pregnancy Advisory Centre,16,41CA00035,,Y,Hospital,,21 Belmore TCE,Woodville 5011,,,Australia,21 Belmore TCE Woodville 5011 SA Australia,0,Major Cities,10,O5,Unpeered,Yes,No,No,No,G,Un-peered and other,SP
451,SA,Quorn Health Services,16,41NF00208,,Y,Hospital,,Hospital RD,Quorn 5433,,,Australia,Hospital RD Quorn 5433 SA Australia,2,Outer Regional,11,S2,Other small public acute,Yes,No,Yes,No,D1,Small regional acute,SM
458,SA,Renmark Paringa District Hospital,16,41RI00211,,Y,Hospital,,Ral Ral AV,Renmark 5341,,,Australia,Ral Ral AV Renmark 5341 SA Australia,2,Outer Regional,23,S1,Small public acute with surgery/obstetrics,Yes,No,Yes,No,D1,Small regional acute,SM
461,SA,Repatriation General Hospital,16,41SA00018,,Y,Hospital,,216 Daws RD,Daw Park 5041,,,Australia,216 Daws RD Daw Park 5041 SA Australia,0,Major Cities,300.3,L,Large public acute,Yes,No,Yes,Yes,B1,Large Major cities,LG
455,SA,Riverland Regional Health Service - Barmera Hospital,16,41RI00055,,Y,Hospital,,Hawdon ST,Barmera 5345,,,Australia,Hawdon ST Barmera 5345 SA Australia,2,Outer Regional,20,S2,Other small public acute,Yes,No,No,No,D1,Small regional acute,SM
456,SA,Riverland Regional Health Service - Berri Hospital,16,41RI00058,,Y,Hospital,,Maddern ST,Berri 5343,-34.27575,140.601572,Australia,Maddern ST Berri 5343 SA Australia,2,Outer Regional,47,S1,Small public acute with surgery/obstetrics,Yes,Yes,Yes,No,C2,Medium (group 2),SM
478,SA,Riverton District Soldiers' Memorial Hospital,16,41WK00214,,Y,Hospital,,23 Moorhouse TCE,Riverton 5412,,,Australia,23 Moorhouse TCE Riverton 5412 SA Australia,1,Inner Regional,14,S2,Other small public acute,Yes,No,No,No,D2,Small non-acute,SM
452,SA,Roxby Downs Health Services,16,41NF00217,,Y,Hospital,,16-28 Burgoyne ST,Roxby Downs 5725,,,Australia,16-28 Burgoyne ST Roxby Downs 5725 SA Australia,3,Remote,10,S2,Other small public acute,Yes,No,No,No,D3,Small remote acute,SM
406,SA,Royal Adelaide Hospital,16,41CA00019,,Y,Hospital,,North TCE,Adelaide 5000,-34.922176,138.588197,Australia,North TCE Adelaide 5000 SA Australia,0,Major Cities,874,PR,Principal referral,Yes,Yes,Yes,Yes,A1,Principal referral,PR
448,SA,Royal District Nursing Service of SA (Marree Health Services),16,41NF00148,,Y,Hospital,,Lot 43 First ST,Marree 5733,,,Australia,Lot 43 First ST Marree 5733 SA Australia,4,Very remote,0,OT,Outpatient hospital,Yes,No,No,No,G,Un-peered and other,SP
479,SA,Snowtown Hospital,16,41WK00220,,Y,Hospital,,South TCE,Snowtown 5520,-33.830263,138.122091,Australia,South TCE Snowtown 5520 SA Australia,2,Outer Regional,4,VS,Very small public,Yes,No,No,No,G,Un-peered and other,SM
431,SA,South Coast District Hospital,16,41HM00223,,Y,Hospital,,Bay RD,Victor Harbor 5211,,,Australia,Bay RD Victor Harbor 5211 SA Australia,1,Inner Regional,42,S1,Small public acute with surgery/obstetrics,Yes,No,Yes,No,C2,Medium (group 2),SM
469,SA,South East Regional CHS,16,41SE00224,,Y,Hospital,,,,-30.0794754,135.828186,Australia,  SA Australia,,,2,O5,Unpeered,No,No,No,No,G,Un-peered and other,SP
480,SA,Southern Yorke Peninsula Health Service (Yorketown),16,41WK00227,,Y,Hospital,,19 Waterloo Bay RD,Yorketown 5576,,,Australia,19 Waterloo Bay RD Yorketown 5576 SA Australia,3,Remote,26,S2,Other small public acute,Yes,No,Yes,No,D3,Small remote acute,SM
408,SA,St. Margaret's Hospital,16,41CA00042,,Y,Hospital,,65 Military RD,Semaphore South 5019,,,Australia,65 Military RD Semaphore South 5019 SA Australia,0,Major Cities,48,N2,Non-acute public-mixed subacute and non-acute,Yes,No,No,No,E4,Rehabilitation,SP
432,SA,Strathalbyn and District Health Service,16,41HM00229,,Y,Hospital,,14 Alfred PL,Strathalbyn 5255,,,Australia,14 Alfred PL Strathalbyn 5255 SA Australia,1,Inner Regional,25,S1,Small public acute with surgery/obstetrics,Yes,No,Yes,No,D2,Small non-acute,SM
418,SA,Streaky Bay Hospital,16,41EY00232,,Y,Hospital,,1 Flinders DR,Streaky Bay 5680,,,Australia,1 Flinders DR Streaky Bay 5680 SA Australia,3,Remote,19,S2,Other small public acute,Yes,No,No,No,D2,Small non-acute,SM
424,SA,Tailem Bend District Hospital,16,41HM00136,,Y,Hospital,,74 Princes HWY,Tailem Bend 5260,,,Australia,74 Princes HWY Tailem Bend 5260 SA Australia,1,Inner Regional,9,S2,Other small public acute,Yes,No,No,No,D1,Small regional acute,SM
481,SA,Tanunda War Memorial Hospital,16,41WK00235,,Y,Hospital,,15 Mill ST,Tanunda 5352,,,Australia,15 Mill ST Tanunda 5352 SA Australia,1,Inner Regional,22,S1,Small public acute with surgery/obstetrics,Yes,No,Yes,No,D1,Small regional acute,SM
425,SA,The Mannum District Hospital,16,41HM00145,,Y,Hospital,,Parker ST,Mannum 5238,,,Australia,Parker ST Mannum 5238 SA Australia,1,Inner Regional,13,S2,Other small public acute,Yes,No,No,No,D2,Small non-acute,SM
429,SA,The Murray Bridge Soldiers' Memorial Hospital,16,41HM00172,,Y,Hospital,,96 Swanport RD,Murray Bridge 5253,,,Australia,96 Swanport RD Murray Bridge 5253 SA Australia,1,Inner Regional,58,S1,Small public acute with surgery/obstetrics,Yes,No,Yes,No,C2,Medium (group 2),SM
405,SA,The Queen Elizabeth Hospital,16,41CA00014,,Y,Hospital,,28 Woodville RD,Woodville South 5011,-34.88369,138.533569,Australia,28 Woodville RD Woodville South 5011 SA Australia,0,Major Cities,346.6,L,Large public acute,Yes,Yes,Yes,Yes,A1,Principal referral,LG
419,SA,Tumby Bay Hospital and Health Services,16,41EY00241,,Y,Hospital,,8-11 The ESP,Tumby Bay 5605,-35.53614,138.681442,Australia,8-11 The ESP Tumby Bay 5605 SA Australia,3,Remote,15,S2,Other small public acute,Yes,No,No,No,D3,Small remote acute,SM
459,SA,Waikerie Hospital & Health Services,16,41RI00244,,Y,Hospital,,1 Lawrie TCE,Waikerie 5330,,,Australia,1 Lawrie TCE Waikerie 5330 SA Australia,2,Outer Regional,29,S1,Small public acute with surgery/obstetrics,Yes,No,Yes,No,D2,Small non-acute,SM
454,SA,Whyalla Hospital & Health Services,16,41NF00249,,Y,Hospital,,20 Wood TCE,Whyalla 5600,-33.034733,137.5777615,Australia,20 Wood TCE Whyalla 5600 SA Australia,2,Outer Regional,99,M,Medium public acute,Yes,Yes,Yes,No,C1,Medium (group 1),LG
409,SA,Women's and Children's Hospital,16,41CW00003,,Y,Hospital,,72 King William RD,North Adelaide 5006,-34.91151,138.59996,Australia,72 King William RD North Adelaide 5006 SA Australia,0,Major Cities,324.8,W2,Womens and childrens,Yes,Yes,Yes,Yes,A2,Specialist womens and childrens,WC
453,SA,Woomera Community Hospital,16,41NF00248,,Y,Hospital,,Dewrang AV,Woomera 5720,-31.200242,136.825746,Australia,Dewrang AV Woomera 5720 SA Australia,4,Very remote,10,VS,Very small public,Yes,No,No,No,G,Un-peered and other,SM
493,TAS,Beaconsfield MPS,24,612000031,,Y,Hospital,,13 Bolton Street,Beaconsfield 7270,-41.193859,146.806,Australia,13 Bolton Street Beaconsfield 7270 TAS Australia,2,Outer Regional,4,VS,Very small public,Yes,No,No,No,G,Un-peered and other,SM
494,TAS,Campbell Town MPS,24,612000032,,Y,Hospital,,70 High Street,Campbell Town 7210,-41.926418,147.493225,Australia,70 High Street Campbell Town 7210 TAS Australia,2,Outer Regional,6,VS,Very small public,Yes,No,No,No,G,Un-peered and other,SM
500,TAS,Deloraine Hospital,24,612000046,,Y,Hospital,,East Barrack Street,Deloraine 7304,-41.534093,146.666216,Australia,East Barrack Street Deloraine 7304 TAS Australia,2,Outer Regional,20,S2,Other small public acute,Yes,No,No,No,D1,Small regional acute,SM
488,TAS,Esperance MPC,24,611000060,,Y,Hospital,,Chapman Avenue,Dover 7117,-43.315187,147.016572,Australia,Chapman Avenue Dover 7117 TAS Australia,2,Outer Regional,2,VS,Very small public,Yes,No,No,No,G,Un-peered and other,SM
499,TAS,Flinders Island MPC,24,612000045,,Y,Hospital,,James Street,Whitemark 7255,-40.12245,148.018179,Australia,James Street Whitemark 7255 TAS Australia,4,Very remote,4,VS,Very small public,Yes,No,No,No,G,Un-peered and other,SM
501,TAS,George Town Hospital,24,612000048,,Y,Hospital,,47 Anne Street,George Town 7253,-41.104149,146.821487,Australia,47 Anne Street George Town 7253 TAS Australia,2,Outer Regional,15,S2,Other small public acute,Yes,No,No,No,D1,Small regional acute,SM
505,TAS,Health West,24,613000044,,Y,Hospital,,Orr Street,Queenstown 7467,-42.081849,145.559711,Australia,Orr Street Queenstown 7467 TAS Australia,3,Remote,10,S2,Other small public acute,Yes,No,No,No,D3,Small remote acute,SM
486,TAS,Huon Hospital,24,611000033,,Y,Hospital,,3278 Huon Highway,Franklin 7113,-43.081669,147.016403,Australia,3278 Huon Highway Franklin 7113 TAS Australia,2,Outer Regional,6,VS,Very small public,Yes,No,No,No,G,Un-peered and other,SM
503,TAS,King Is MPC,24,613000034,,Y,Hospital,,Edward Street,Currie 7256,-39.931072,143.850671,Australia,Edward Street Currie 7256 TAS Australia,4,Very remote,6,S2,Other small public acute,Yes,No,No,No,G,Un-peered and other,SM
492,TAS,Launceston General Hospital,24,612000002,,Y,Hospital,,274-280 Charles Street,Launceston 7250,-41.4469394,147.14324,Australia,274-280 Charles Street Launceston 7250 TAS Australia,1,Inner Regional,340,L,Large public acute,Yes,Yes,Yes,Yes,A1,Principal referral,LG
490,TAS,May Shaw District Nursing Centre,24,611000062,,Y,Hospital,,37 Wellington Street,Swansea 7190,-42.12746,148.077042,Australia,37 Wellington Street Swansea 7190 TAS Australia,3,Remote,2,VS,Very small public,Yes,No,No,No,G,Un-peered and other,SM
506,TAS,Mersey,24,613000045,,Y,Hospital,,Bass Highway,Latrobe 7307,-41.197658,146.384998,Australia,Bass Highway Latrobe 7307 TAS Australia,2,Outer Regional,89,M,Medium public acute,Yes,Yes,Yes,Yes,B2,Large regional and remote,LG
491,TAS,Midlands MPC,24,611000064,,Y,Hospital,,13 Church Street,Oatlands 7120,-42.29977,147.369797,Australia,13 Church Street Oatlands 7120 TAS Australia,2,Outer Regional,4,VS,Very small public,Yes,No,No,No,G,Un-peered and other,SM
495,TAS,NESM - Scottsdale Hospital,24,612000036,,Y,Hospital,,Cameron Street,Scottsdale 7260,-41.156896,147.51874,Australia,Cameron Street Scottsdale 7260 TAS Australia,2,Outer Regional,20,S1,Small public acute with surgery/obstetrics,Yes,No,No,No,D2,Small non-acute,SM
487,TAS,New Norfolk Hospital,24,611000035,,Y,Hospital,,3 Richmond Street,New Norfolk 7140,-42.53759,147.365952,Australia,3 Richmond Street New Norfolk 7140 TAS Australia,1,Inner Regional,14,S2,Other small public acute,Yes,No,No,No,D2,Small non-acute,SM
502,TAS,NWRH_Burnie,24,613000003,,Y,Hospital,,23 Brickport Road,Burnie 7320,-41.049419,145.879016,Australia,23 Brickport Road Burnie 7320 TAS Australia,2,Outer Regional,115,L,Large public acute,Yes,Yes,Yes,Yes,B2,Large regional and remote,LG
485,TAS,Royal Hobart Hospital,24,611000001,,Y,Hospital,,48 Liverpool Street,Hobart 7000,-42.88002,147.329956,Australia,48 Liverpool Street Hobart 7000 TAS Australia,1,Inner Regional,486,PR,Principal referral,Yes,Yes,Yes,Yes,A1,Principal referral,PR
504,TAS,Smithton Hospital,24,613000041,,Y,Hospital,,74 Brittons Road,Smithton 7330,-40.8498904,145.1304057,Australia,74 Brittons Road Smithton 7330 TAS Australia,2,Outer Regional,13,S2,Other small public acute,Yes,No,No,No,D1,Small regional acute,SM
496,TAS,St Helens District Hospital,24,612000039,,Y,Hospital,,Circassion Street,St Helens 7216,-41.323321,148.246236,Australia,Circassion Street St Helens 7216 TAS Australia,2,Outer Regional,10,S2,Other small public acute,Yes,No,No,No,D1,Small regional acute,SM
497,TAS,St Marys CHC,24,612000040,,Y,Hospital,,Gardiners Creek Road,St Marys 7215,-41.556101,148.17698,Australia,Gardiners Creek Road St Marys 7215 TAS Australia,2,Outer Regional,8,S2,Other small public acute,Yes,No,No,No,G,Un-peered and other,SM
489,TAS,Tasman MPC,24,611000061,,Y,Hospital,,1614 Nubeena Road,Nubeena 7184,-43.096951,147.743469,Australia,1614 Nubeena Road Nubeena 7184 TAS Australia,2,Outer Regional,2,VS,Very small public,Yes,No,No,No,G,Un-peered and other,SM
507,TAS,Tasmania_public_psychiatric,24,644000058,,Y,Hospital,,,Various,32.50931,-91.044,Australia, Various TAS Australia,1,Inner Regional,10,Ps,Psychiatric public,No,No,No,No,,Unknown,PS
498,TAS,Toosey Memorial - Longford,24,612000042,,Y,Hospital,,10 Archer Street,Longford 7301,-41.59333,147.119354,Australia,10 Archer Street Longford 7301 TAS Australia,1,Inner Regional,2,VS,Very small public,Yes,No,No,No,G,Un-peered and other,SM
671,VIC,Albury Wodonga Health,20,NET003485,,Y,Network,,,Various,,,Australia, Various VIC Australia,Not applicable,Not applicable,Not applicable,Not applicable,Not applicable,No,No,No,No,G,Un-peered and other,SP
656,VIC,Albury Wodonga Health - Albury Camps,20,210N01650,NET003485,Y,Campus,0010560W,201 Borella Road,Albury 2640,-36.076307,146.935199,Australia,201 Borella Road Albury 2640 VIC Australia,1,Inner Regional,119.84,L,Large public acute,Yes,Yes,No,Yes,B2,Large regional and remote,LG
577,VIC,Albury Wodonga Health - Wodonga Camps,20,210401660,NET003485,Y,Campus,,69 Vermont Street,Wodonga 3690,-36.131969,146.879822,Australia,69 Vermont Street Wodonga 3690 VIC Australia,1,Inner Regional,110.58,M,Medium public acute,Yes,Yes,No,Yes,B2,Large regional and remote,LG
585,VIC,Alexandra District Hospital,20,210403010,,Y,Hospital,,20 Cooper Street,Alexandra 3714,-37.196754,145.705402,Australia,20 Cooper Street Alexandra 3714 VIC Australia,1,Inner Regional,31,S1,Small public acute with surgery/obstetrics,Yes,No,No,No,D1,Small regional acute,SM
687,VIC,Alfred Health,20,NET011519,,Y,Network,,,Various,,,Australia, Various VIC Australia,Not applicable,Not applicable,Not applicable,Not applicable,Not applicable,No,No,No,No,A1,Principal referral,SP
632,VIC,Alfred The,20,210A01010,NET011519,Y,Campus,,55 Commercial Road,Prahran 3181,-37.845852,144.987625,Australia,55 Commercial Road Prahran 3181 VIC Australia,0,Major Cities,674.08,PR,Principal referral,Yes,Yes,Yes,Yes,A1,Principal referral,PR
675,VIC,Alpine Health,20,NET005618,,Y,Network,,,Various,,,Australia, Various VIC Australia,Not applicable,Not applicable,Not applicable,Not applicable,Not applicable,No,No,No,No,E2,Multi-purpose services,SP
580,VIC,Alpine Health [Bright],20,210401882,NET005618,Y,Campus,,36-42 Cobden Street,Bright 3741,-36.73299,146.966354,Australia,36-42 Cobden Street Bright 3741 VIC Australia,2,Outer Regional,9,S1,Small public acute with surgery/obstetrics,Yes,No,No,No,E2,Multi-purpose services,SM
581,VIC,Alpine Health [Mount Beauty],20,210401883,NET005618,Y,Campus,,10 Hollonds Street,Mt Beauty 3699,-36.74337,147.16983,Australia,10 Hollonds Street Mt Beauty 3699 VIC Australia,2,Outer Regional,10,S2,Other small public acute,Yes,No,No,No,E2,Multi-purpose services,SM
579,VIC,Alpine Health [Myrtleford],20,210401881,NET005618,Y,Campus,,30 O'Donnell Avenue,Myrtleford 3736,-36.554539,146.727524,Australia,30 O'Donnell Avenue Myrtleford 3736 VIC Australia,1,Inner Regional,15,S2,Other small public acute,Yes,No,No,No,E2,Multi-purpose services,SM
608,VIC,Angliss Hospital,20,210801590,NET011518,Y,Campus,,Albert Street,Upper Ferntree Gully 3156,-37.898405,145.312255,Australia,Albert Street Upper Ferntree Gully 3156 VIC Australia,0,Major Cities,170.33,M,Medium public acute,Yes,Yes,Yes,Yes,B1,Large Major cities,LG
670,VIC,Austin Health,20,NET003399,,Y,Network,,,Various,,,Australia, Various VIC Australia,Not applicable,Not applicable,Not applicable,Not applicable,Not applicable,No,No,No,No,A1,Principal referral,SP
634,VIC,Austin Hospital [Heidelberg Repatriation Hospital],20,210A01032,NET003399,Y,Campus,,300 Waterdale Road,Heidelberg West 3081,-37.75547,145.045486,Australia,300 Waterdale Road Heidelberg West 3081 VIC Australia,0,Major Cities,193.91,S1,Small public acute with surgery/obstetrics,Yes,No,No,No,C1,Medium (group 1),SM
633,VIC,Austin Hospital [Heidelberg],20,210A01031,NET003399,Y,Campus,,145 Studley Road,Heidelberg 3084,-37.7565095,145.06051,Australia,145 Studley Road Heidelberg 3084 VIC Australia,0,Major Cities,596.75,PR,Principal referral,Yes,Yes,Yes,Yes,A1,Principal referral,PR
593,VIC,Bairnsdale Regional Health Service,20,210501040,,Y,Hospital,,122 Day Street,Bairnsdale 3875,-37.829454,147.608968,Australia,122 Day Street Bairnsdale 3875 VIC Australia,2,Outer Regional,95.67,S1,Small public acute with surgery/obstetrics,Yes,Yes,No,Yes,B2,Large regional and remote,SM
676,VIC,Ballarat Health Services,20,NET005647,,Y,Network,,,Various,,,Australia, Various VIC Australia,Not applicable,Not applicable,Not applicable,Not applicable,Not applicable,No,No,No,No,A1,Principal referral,SP
530,VIC,Ballarat Health Services [Base Campus],20,210202010,NET005647,Y,Campus,,1 Dummond Street North,Ballarat Central 3350,-37.559551,143.847412,Australia,1 Dummond Street North Ballarat Central 3350 VIC Australia,1,Inner Regional,244.92,L,Large public acute,Yes,Yes,Yes,Yes,A1,Principal referral,LG
531,VIC,Ballarat Health Services [Queen Elizabeth Campus],20,210202070,NET005647,Y,Campus,,102 Ascot Street,Ballarat 3350,-37.574003,143.841969,Australia,102 Ascot Street Ballarat 3350 VIC Australia,1,Inner Regional,92,N1,Non-acute public-rehabilitation and GEM,Yes,No,No,No,D2,Small non-acute,SP
679,VIC,Barwon Health,20,NET010441,,Y,Network,,,Various,,,Australia, Various VIC Australia,Not applicable,Not applicable,Not applicable,Not applicable,Not applicable,No,No,No,No,A1,Principal referral,SP
595,VIC,Bass Coast Regional Health,20,210501670,,Y,Hospital,,235 Graham Street,Wonthaggi 3995,-38.6073,145.580917,Australia,235 Graham Street Wonthaggi 3995 VIC Australia,1,Inner Regional,50.59,S1,Small public acute with surgery/obstetrics,Yes,Yes,No,No,C2,Medium (group 2),SM
674,VIC,Beaufort & Skipton Health Service,20,NET003609,,Y,Network,,,Various,,,Australia, Various VIC Australia,Not applicable,Not applicable,Not applicable,Not applicable,Not applicable,No,No,No,No,D2,Small non-acute,SP
541,VIC,Beaufort & Skipton Health Service [Beaufort],20,210203120,NET003609,Y,Campus,,28 Havelock Street,Beaufort 3373,-37.43103,143.382294,Australia,28 Havelock Street Beaufort 3373 VIC Australia,1,Inner Regional,10,VS,Very small public,Yes,No,No,No,G,Un-peered and other,SM
517,VIC,Beaufort & Skipton Health Service [Skipton],20,210102230,NET003609,Y,Campus,,Blake Street,Skipton 3361,-37.684709,143.367343,Australia,Blake Street Skipton 3361 VIC Australia,1,Inner Regional,6,VS,Very small public,Yes,No,No,No,G,Un-peered and other,SM
591,VIC,Beechworth Health Service,20,210404460,,Y,Hospital,,52 Sydney Road,Beechworth 3747,-36.35006,146.690613,Australia,52 Sydney Road Beechworth 3747 VIC Australia,1,Inner Regional,13,S2,Other small public acute,Yes,No,No,No,D1,Small regional acute,SM
590,VIC,Benalla & District Memorial Hospital,20,210404050,,Y,Hospital,,45-53 Coster Street,Benalla 3672,-36.555309,145.993484,Australia,45-53 Coster Street Benalla 3672 VIC Australia,1,Inner Regional,56.84,S1,Small public acute with surgery/obstetrics,Yes,No,No,No,C2,Medium (group 2),SM
663,VIC,Bendigo Health Care Group,20,NET003292,,Y,Network,,,Various,,,Australia, Various VIC Australia,Not applicable,Not applicable,Not applicable,Not applicable,Not applicable,No,No,No,No,A1,Principal referral,SP
547,VIC,Bendigo Health Care Group [Anne Caudle],20,210301022,NET003292,Y,Campus,,100 Barnard Street,Bendigo 3550,-36.751499,144.280807,Australia,100 Barnard Street Bendigo 3550 VIC Australia,1,Inner Regional,97.08,N1,Non-acute public-rehabilitation and GEM,Yes,No,No,No,D2,Small non-acute,SP
546,VIC,Bendigo Hospital The,20,210301021,NET003292,Y,Campus,,62 Lucan Street,Bendigo 3550,-36.749249,144.284134,Australia,62 Lucan Street Bendigo 3550 VIC Australia,1,Inner Regional,252.67,L,Large public acute,Yes,Yes,Yes,Yes,A1,Principal referral,LG
564,VIC,Boort District Health,20,210303060,,Y,Hospital,,31 Kiniry Street,Boort 3537,-36.111801,143.727829,Australia,31 Kiniry Street Boort 3537 VIC Australia,2,Outer Regional,9,S2,Other small public acute,Yes,No,No,No,G,Un-peered and other,SM
605,VIC,Box Hill Hospital,20,210801050,NET011518,Y,Campus,,51 Nelson Road,Box Hill 3128,-37.81389,145.119988,Australia,51 Nelson Road Box Hill 3128 VIC Australia,0,Major Cities,348.25,L,Large public acute,Yes,Yes,Yes,Yes,A1,Principal referral,LG
652,VIC,Broadmeadows Health Service,20,210A02970,NET011517,Y,Campus,,35 Johnstone Street,Broadmeadows 3047,-37.6839546,144.913819,Australia,35 Johnstone Street Broadmeadows 3047 VIC Australia,0,Major Cities,130.34,S1,Small public acute with surgery/obstetrics,Yes,No,Yes,No,C2,Medium (group 2),SM
635,VIC,Bundoora Extended Care Centre,20,210A01090,NET011517,Y,Campus,,1231 Plenty Road,Bundoora 3083,-37.700958,145.057632,Australia,1231 Plenty Road Bundoora 3083 VIC Australia,0,Major Cities,74.33,N2,Non-acute public-mixed subacute and non-acute,Yes,No,No,No,D2,Small non-acute,SP
626,VIC,Calvary Health Care Bethlehem Ltd,20,210903050,,Y,Hospital,,476 Kooyong Road,Caulfield 3162,-37.896789,145.0129283,Australia,476 Kooyong Road Caulfield 3162 VIC Australia,0,Major Cities,68.67,N1,Non-acute public-rehabilitation and GEM,Yes,No,No,No,G,Un-peered and other,SP
610,VIC,Caritas Christi Hospice Ltd [Kew],20,210802080,210A01450,Y,Campus,,104 Studley Park Road,Kew 3101,-37.804062,144.994949,Australia,104 Studley Park Road Kew 3101 VIC Australia,0,Major Cities,28,N1,Non-acute public-rehabilitation and GEM,Yes,No,No,No,G,Un-peered and other,SP
628,VIC,Casey Hospital,20,210903660,NET003289,Y,Campus,,52 Kangan Drive,Berwick 3806,-38.0425478,145.3453497,Australia,52 Kangan Drive Berwick 3806 VIC Australia,0,Major Cities,220.75,M,Medium public acute,Yes,Yes,Yes,Yes,A1,Principal referral,LG
514,VIC,Casterton Memorial Hospital,20,210102090,,Y,Hospital,,63-69 Russell Street,Casterton 3311,-37.590359,141.393158,Australia,63-69 Russell Street Casterton 3311 VIC Australia,2,Outer Regional,15,S2,Other small public acute,Yes,No,No,No,D2,Small non-acute,SM
571,VIC,Castlemaine Health,20,210305010,,Y,Hospital,,142 Cornish Street,Castlemaine 3450,-37.053429,144.213623,Australia,142 Cornish Street Castlemaine 3450 VIC Australia,1,Inner Regional,54.66,S1,Small public acute with surgery/obstetrics,Yes,No,No,No,C2,Medium (group 2),SM
620,VIC,Caulfield General Medical Centre,20,210901370,NET011519,Y,Campus,,260-294 Kooyong Road,Caulfield 3162,-37.884399,145.015472,Australia,260-294 Kooyong Road Caulfield 3162 VIC Australia,0,Major Cities,216.17,N1,Non-acute public-rehabilitation and GEM,Yes,No,No,No,C2,Medium (group 2),SP
683,VIC,Central Gippsland Health Service,20,NET011269,,Y,Network,,,Various,,,Australia, Various VIC Australia,Not applicable,Not applicable,Not applicable,Not applicable,Not applicable,No,No,No,No,B2,Large regional and remote,SP
602,VIC,Central Gippsland Health Service [Maffra],20,210502580,NET011269,Y,Campus,,48 Kent Street,Maffra 3860,-37.96096,146.983276,Australia,48 Kent Street Maffra 3860 VIC Australia,1,Inner Regional,9,S2,Other small public acute,Yes,No,No,No,D2,Small non-acute,SM
598,VIC,Central Gippsland Health Service [Sale],20,210502060,NET011269,Y,Campus,,155 Guthridge Parade,Sale 3850,-38.1084372,147.0817939,Australia,155 Guthridge Parade Sale 3850 VIC Australia,1,Inner Regional,81.34,L,Large public acute,Yes,Yes,No,Yes,B2,Large regional and remote,LG
592,VIC,Cobram District Hospital,20,210405120,,Y,Hospital,,24-32 Broadway Street,Cobram 3644,-35.916519,145.651093,Australia,24-32 Broadway Street Cobram 3644 VIC Australia,1,Inner Regional,17.5,S2,Other small public acute,Yes,No,No,No,D1,Small regional acute,SM
557,VIC,Cohuna District Hospital,20,210302130,,Y,Hospital,,144-158 King George Street,Cohuna 3568,-35.80014,144.214493,Australia,144-158 King George Street Cohuna 3568 VIC Australia,2,Outer Regional,16,S1,Small public acute with surgery/obstetrics,Yes,No,No,No,D1,Small regional acute,SM
510,VIC,Colac Area Health,20,210101130,,Y,Hospital,,2-28 Connor Street,Colac 3250,-38.340839,143.582245,Australia,2-28 Connor Street Colac 3250 VIC Australia,1,Inner Regional,37.33,S1,Small public acute with surgery/obstetrics,Yes,No,No,No,C2,Medium (group 2),SM
653,VIC,Craigieburn Health Service,20,210A03670,NET011517,Y,Campus,,350 Craigieburn Road West,Craigieburn 3064,-37.594724,144.9126372,Australia,350 Craigieburn Road West Craigieburn 3064 VIC Australia,0,Major Cities,6,O4,Other day procedure hospital,Yes,No,No,No,G,Un-peered and other,SP
624,VIC,Cranbourne Integrated Care Centre,20,210902112,NET003289,Y,Campus,,140-154 Sladen Street,Cranbourne 3977,-38.113049,145.280777,Australia,140-154 Sladen Street Cranbourne 3977 VIC Australia,0,Major Cities,21.92,O4,Other day procedure hospital,Yes,No,Yes,No,C2,Medium (group 2),SP
545,VIC,Creswick District Hospital,20,210204162,NET010434,Y,Campus,,1 Napier Street,Creswick 3363,-37.420631,143.891663,Australia,1 Napier Street Creswick 3363 VIC Australia,1,Inner Regional,4,VS,Very small public,Yes,No,No,No,G,Un-peered and other,SM
