MHid,State,Hospname,Wait Time,Establishment ID,Parent Id,Use Default wait time,Stage Average Wait Time,Unit,Medicare Prov Number,Address Line 1,Address Line 2,Latitude,Longitude,Australia,Full Address,Remoteness area (code),Remoteness area,Number of available beds,2012-13 Peer Group code,2012-13 Peer Group Name,Admissions reported,Emergency department,Elective surgery reported,Outpatient clinics,2011-12 Peer Group code,2011-12 Peer Group Name,Hospital Group
1,ACT,Canberra Hospital & Health Services,,810000082,,Y,44,Hospital,0090030B,Yamba Dr,Garran 2605,-35.346756,149.099645,Australia,Yamba Dr Garran 2605 ACT Australia,0,Major Cities,741,PR,Principal referral,Yes,Yes,Yes,Yes,A1,Principal referral,PR
2,ACT,Calvary Public Hospital,,810000083,,Y,44,Hospital,0090040A,Haydon DR,Bruce 2617,-35.242533,149.090413,Australia,Haydon DR Bruce 2617 ACT Australia,0,Major Cities,235,L,Large public acute,Yes,Yes,Yes,Yes,A1,Principal referral,LG
3,ACT,QEII Family Centre,,810000084,,Y,44,Hospital,0090020F,129 Carruthers ST,Curtin 2605,-35.32357,149.078827,Australia,129 Carruthers ST Curtin 2605 ACT Australia,0,Major Cities,10,O1,Early parenting centres,No,No,No,No,E5,Mothercraft,WC
4,NSW,Justice Health,,1117C1010,,Y,19,Hospital,0012860K,Anzac PDE,Malabar 2036,-33.963535,151.246271,Australia,Anzac PDE Malabar 2036 NSW Australia,0,Major Cities,345.9,Ps,Psychiatric public,Yes,No,No,No,C1,Medium (group 1),PS
5,NSW,Children's Hospital Westmead,33,1163A2070,,N,19,Hospital,0010300T,178 Hawkesbury RD,Westmead 2145,-33.8027134,150.9920812,Australia,178 Hawkesbury RD Westmead 2145 NSW Australia,0,Major Cities,280.8,W3,Childrens,Yes,Yes,Yes,Yes,A2,Specialist womens and childrens,WC
6,NSW,Sydney Children's,23,1163C2380,,N,19,Hospital,0010260H,1 High ST,Randwick 2031,-33.902328,151.255814,Australia,1 High ST Randwick 2031 NSW Australia,0,Major Cities,148.5,W3,Childrens,Yes,Yes,Yes,Yes,A2,Specialist womens and childrens,WC
7,NSW,Sacred Heart Hospice,,1169A2090,,Y,19,Hospital,0010400K,170 Darlinghurst RD,Darlinghurst 2010,-33.8808761,151.2183948,Australia,170 Darlinghurst RD Darlinghurst 2010 NSW Australia,0,Major Cities,69.6,N1,Non-acute public-rehabilitation and GEM,Yes,No,No,No,G,Un-peered and other,SP
8,NSW,St Vincent's Darlinghurst,11,1169A2120,,N,19,Hospital,0010460Y,390 Victoria ST,Darlinghurst 2010,-33.879101,151.221786,Australia,390 Victoria ST Darlinghurst 2010 NSW Australia,0,Major Cities,363.8,PR,Principal referral,Yes,Yes,Yes,Yes,A1,Principal referral,PR
9,NSW,St Joseph's Auburn,,1169D2130,,Y,19,Hospital,0010430F,19a Alice ST,Auburn 2144,-33.8486883,151.029456,Australia,19a Alice ST Auburn 2144 NSW Australia,0,Major Cities,71.5,N1,Non-acute public-rehabilitation and GEM,Yes,No,No,No,E9,Other non-acute,SP
10,NSW,Balmain,,1170A2010,,Y,19,Hospital,0010030Y,29 Booth ST,Balmain 2041,-33.8597698,151.1820713,Australia,29 Booth ST Balmain 2041 NSW Australia,0,Major Cities,74.2,S2,Other small public acute,Yes,No,No,No,E9,Other non-acute,SM
11,NSW,Canterbury,21,1170A2020,,N,19,Hospital,0010090J,575 Canterbury RD,Campsie 2194,-33.918168,151.104594,Australia,575 Canterbury RD Campsie 2194 NSW Australia,0,Major Cities,172.4,M,Medium public acute,Yes,Yes,Yes,Yes,B1,Large Major cities,LG
12,NSW,Royal Prince Alfred,31,1170A2080,,N,19,Hospital,0010320k,50 Missenden RD,Camperdown 2050,-33.8916011,151.1827667,Australia,50 Missenden RD Camperdown 2050 NSW Australia,0,Major Cities,753.2,PR,Principal referral,Yes,Yes,Yes,Yes,A1,Principal referral,PR
13,NSW,Tresillian Care Centres,,1170A2340,,Y,19,Hospital,0010350F,571 Canterbury RD,Campsie 2194,-33.919811,151.099762,Australia,571 Canterbury RD Campsie 2194 NSW Australia,0,Major Cities,33.2,O1,Early parenting centres,Yes,No,No,No,E5,Mothercraft,WC
14,NSW,Concord,20,1170A2370,,N,19,Hospital,0012720A,1a Hospital RD,Concord West 2138,-33.837299,151.090942,Australia,1a Hospital RD Concord West 2138 NSW Australia,0,Major Cities,663.7,PR,Principal referral,Yes,Yes,Yes,Yes,A1,Principal referral,PR
15,NSW,RPAH Institute of Rheumatology & Orthopaedics,,1170A2390,,Y,19,Hospital,,57-59 Missenden RD,Camperdown 2050,-33.888378,151.180435,Australia,57-59 Missenden RD Camperdown 2050 NSW Australia,0,Major Cities,24.6,O3,Other public acute specialised,Yes,No,Yes,No,C2,Medium (group 2),SP
16,NSW,Karitane Mothercraft Society,,1171C2030,,Y,19,Hospital,0010150L,53-65 Mitchell ST,Carramar 2163,-33.880715,150.965056,Australia,53-65 Mitchell ST Carramar 2163 NSW Australia,0,Major Cities,18.5,O1,Early parenting centres,Yes,No,No,No,E5,Mothercraft,WC
17,NSW,Camden,12,1171D2050,,N,19,Hospital,0010870B,65 Menangle RD,Camden 2570,-34.061754,150.694805,Australia,65 Menangle RD Camden 2570 NSW Australia,0,Major Cities,56.7,S2,Other small public acute,Yes,Yes,No,No,D2,Small non-acute,SM
18,NSW,Fairfield,19,1171D2060,,N,19,Hospital,0010110Y,360 Prairie Vale RD,Prairiewood 2176,-33.8599379,150.902548,Australia,360 Prairie Vale RD Prairiewood 2176 NSW Australia,0,Major Cities,208,M,Medium public acute,Yes,Yes,Yes,Yes,B1,Large Major cities,LG
19,NSW,Liverpool,21,1171D2090,,N,19,Hospital,0010200X,Lot 2 Elizabeth ST,Liverpool 2170,-33.920338,150.925287,Australia,Lot 2 Elizabeth ST Liverpool 2170 NSW Australia,0,Major Cities,738.6,PR,Principal referral,Yes,Yes,Yes,Yes,A1,Principal referral,PR
20,NSW,Campbelltown,21,1171D2150,,N,19,Hospital,0012750W,1 Therry RD,Campbelltown 2560,-34.079931,150.802561,Australia,1 Therry RD Campbelltown 2560 NSW Australia,0,Major Cities,334.7,L,Large public acute,Yes,Yes,Yes,Yes,A1,Principal referral,LG
21,NSW,Bankstown/ Lidcombe,19,1171D2270,,N,19,Hospital,0010040X,68 Eldridge RD,Bankstown 2200,-33.932171,151.020477,Australia,68 Eldridge RD Bankstown 2200 NSW Australia,0,Major Cities,392.5,L,Large public acute,Yes,Yes,Yes,Yes,A1,Principal referral,LG
22,NSW,Braeside,,1171D2280,,Y,19,Hospital,0012830W,340 Prairie Vale RD,Prairiewood 2176,-33.8605666,150.9018296,Australia,340 Prairie Vale RD Prairiewood 2176 NSW Australia,0,Major Cities,72,N1,Non-acute public-rehabilitation and GEM,Yes,No,No,No,E9,Other non-acute,SP
23,NSW,Bowral,23,1171N2190,,N,19,Hospital,0010690H,Lot 3 Mona RD,Bowral 2576,-34.484995,150.424612,Australia,Lot 3 Mona RD Bowral 2576 NSW Australia,1,Inner Regional,70.8,M,Medium public acute,Yes,Yes,Yes,No,C1,Medium (group 1),LG
24,NSW,Sydney/ Sydney Eye,19,1172A2330,,N,19,Hospital,0010500H,8 Macquarie ST,Sydney 2000,-33.8672715,151.2123468,Australia,8 Macquarie ST Sydney 2000 NSW Australia,0,Major Cities,66.8,M,Medium public acute,Yes,Yes,Yes,No,C1,Medium (group 1),LG
25,NSW,Sydney Dental,,1172C1530,,Y,19,Hospital,,2 Chalmers ST,Surry Hills 2010,-33.88446,151.207794,Australia,2 Chalmers ST Surry Hills 2010 NSW Australia,0,Major Cities,0,O5,Unpeered,No,No,No,No,G,Un-peered and other,SP
26,NSW,Calvary,,1172C2020,,Y,19,Hospital,0012520J,91-101 Rocky Point RD,Kogarah 2217,-33.9750606,151.136519,Australia,91-101 Rocky Point RD Kogarah 2217 NSW Australia,0,Major Cities,106.3,N2,Non-acute public-mixed subacute and non-acute,Yes,No,No,No,G,Un-peered and other,SP
27,NSW,Gower Wilson (MPS),,1172C2050,,Y,19,Hospital,,1 Lagoon RD,Lord Howe Island 2898,,,Australia,1 Lagoon RD Lord Howe Island 2898 NSW Australia,4,Very remote,0.1,VS,Very small public,Yes,No,No,No,E9,Other non-acute,SM
28,NSW,Waverley War Memorial,,1172C2060,,Y,19,Hospital,0012590W,125 Birrell ST,Waverley 2024,-33.8964759,151.2534948,Australia,125 Birrell ST Waverley 2024 NSW Australia,0,Major Cities,35,N2,Non-acute public-mixed subacute and non-acute,Yes,No,No,No,E4,Rehabilitation,SP
29,NSW,Prince of Wales,20,1172C2080,,N,19,Hospital,0010260H,147 Barker ST,Randwick 2031,-33.919478,151.225835,Australia,147 Barker ST Randwick 2031 NSW Australia,0,Major Cities,512.7,PR,Principal referral,Yes,Yes,Yes,Yes,A1,Principal referral,PR
30,NSW,St George,24,1172C2130,,N,19,Hospital,0010410J,28 Gray ST,Kogarah 2017,-33.967789,151.133209,Australia,28 Gray ST Kogarah 2017 NSW Australia,0,Major Cities,605.7,PR,Principal referral,Yes,Yes,Yes,Yes,A1,Principal referral,PR
31,NSW,Sutherland,25,1172C2140,,N,19,Hospital,0010480W,430 Kingsway,Caringbah 2229,-34.0367797,151.1167383,Australia,430 Kingsway Caringbah 2229 NSW Australia,0,Major Cities,318.8,L,Large public acute,Yes,Yes,Yes,Yes,A1,Principal referral,LG
32,NSW,Royal For Women,,1172C2200,,Y,19,Hospital,0010070L,Barker ST,Randwick 2031,-33.919478,151.225835,Australia,Barker ST Randwick 2031 NSW Australia,0,Major Cities,122.2,W1,Womens,Yes,No,Yes,Yes,A2,Specialist womens and childrens,WC
33,NSW,Bulli,15,1173P2020,,N,19,Hospital,0010850H,33A Hospital RD,Bulli 2516,-34.33617,150.906448,Australia,33A Hospital RD Bulli 2516 NSW Australia,0,Major Cities,56.3,S1,Small public acute with surgery/obstetrics,Yes,Yes,Yes,No,D2,Small non-acute,SM
34,NSW,Coledale,,1173P2030,,Y,19,Hospital,0010970Y,636 Lawrence Hargrave DR,Coledale 2515,-34.2840142,150.9512703,Australia,636 Lawrence Hargrave DR Coledale 2515 NSW Australia,0,Major Cities,38,N1,Non-acute public-rehabilitation and GEM,Yes,No,No,No,E9,Other non-acute,SP
35,NSW,Kiama,,1173P2040,,Y,19,Hospital,,1 Bonaira ST,Kiama 2533,-34.681911,150.849625,Australia,1 Bonaira ST Kiama 2533 NSW Australia,1,Inner Regional,20,N1,Non-acute public-rehabilitation and GEM,Yes,No,No,No,E9,Other non-acute,SP
36,NSW,Milton and Ulladulla,19,1173P2050,,N,19,Hospital,0011740F,104 Princes HWY,Milton 2538,-35.317242,150.438934,Australia,104 Princes HWY Milton 2538 NSW Australia,1,Inner Regional,25.3,S1,Small public acute with surgery/obstetrics,Yes,Yes,Yes,No,C2,Medium (group 2),SM
37,NSW,Port Kembla,,1173P2060,,Y,19,Hospital,0012480A,89-91 Cowper ST,Warrawong 2502,-34.4853512,150.8877049,Australia,89-91 Cowper ST Warrawong 2502 NSW Australia,0,Major Cities,56.2,N1,Non-acute public-rehabilitation and GEM,Yes,No,No,No,E4,Rehabilitation,SP
38,NSW,Shoalhaven Memorial,26,1173P2070,,N,19,Hospital,0012060Y,2 Shoalhaven ST,Nowra 2541,-34.8817447,150.5941701,Australia,2 Shoalhaven ST Nowra 2541 NSW Australia,1,Inner Regional,155.1,L,Large public acute,Yes,Yes,Yes,Yes,A1,Principal referral,LG
39,NSW,Wollongong,27,1173P2080,,N,19,Hospital,0012400W,348 Crown ST,Wollongong 2500,-34.42474,150.883499,Australia,348 Crown ST Wollongong 2500 NSW Australia,0,Major Cities,484.6,PR,Principal referral,Yes,Yes,Yes,Yes,A1,Principal referral,PR
40,NSW,Shellharbour,20,1173P2110,,N,19,Hospital,0010060T,15-17 Madigan BVD,Mount Warrigal 2528,-34.557991,150.842468,Australia,15-17 Madigan BVD Mount Warrigal 2528 NSW Australia,0,Major Cities,165.5,M,Medium public acute,Yes,Yes,Yes,Yes,B1,Large Major cities,LG
41,NSW,Illawarra Mental Health Services,,1173P2170,,Y,19,Hospital,,15-17 Madigan BVD,Shellharbour Square 2529,-34.557991,150.842468,Australia,15-17 Madigan BVD Shellharbour Square 2529 NSW Australia,0,Major Cities,0,O5,Unpeered,No,No,No,No,G,Un-peered and other,SP
42,NSW,David Berry,,1173P2910,,Y,19,Hospital,0011130J,85 Tannery RD,Berry 2535,-34.776091,150.709671,Australia,85 Tannery RD Berry 2535 NSW Australia,1,Inner Regional,26,N1,Non-acute public-rehabilitation and GEM,Yes,No,No,No,E9,Other non-acute,SP
43,NSW,Auburn,22,1174D2010,,N,19,Hospital,0010020A,18-20 Hargrave RD,Auburn 2144,-33.860931,151.032578,Australia,18-20 Hargrave RD Auburn 2144 NSW Australia,0,Major Cities,123.9,M,Medium public acute,Yes,Yes,Yes,Yes,B1,Large Major cities,LG
44,NSW,Blacktown,19,1174D2030,,N,19,Hospital,0012490Y,44 Blacktown RD,Blacktown 2148,-33.778217,150.920017,Australia,44 Blacktown RD Blacktown 2148 NSW Australia,0,Major Cities,336.8,L,Large public acute,Yes,Yes,Yes,Yes,A1,Principal referral,LG
45,NSW,Mount Druitt,31,1174D2180,,N,19,Hospital,0012780K,75 Railway ST,Mount Druitt 2770,-33.7651472,150.8313111,Australia,75 Railway ST Mount Druitt 2770 NSW Australia,0,Major Cities,133.5,M,Medium public acute,Yes,Yes,Yes,No,B1,Large Major cities,LG
46,NSW,Westmead,25,1174D2240,,N,19,Hospital,0012760T,166 Darcy RD,Westmead 2145,-33.803524,150.978219,Australia,166 Darcy RD Westmead 2145 NSW Australia,0,Major Cities,788.3,PR,Principal referral,Yes,Yes,Yes,Yes,A1,Principal referral,PR
47,NSW,Blue Mountains,21,1175D2040,,N,19,Hospital,0010730T,Lot 3 Woodlands RD,Katoomba 2780,-33.704419,150.320766,Australia,Lot 3 Woodlands RD Katoomba 2780 NSW Australia,0,Major Cities,92.9,S1,Small public acute with surgery/obstetrics,Yes,Yes,Yes,No,C2,Medium (group 2),SM
48,NSW,Nepean,16,1175D2100,,N,19,Hospital,0011860X,256 Derby ST,Kingswood 2747,-33.760807,150.711684,Australia,256 Derby ST Kingswood 2747 NSW Australia,0,Major Cities,522,PR,Principal referral,Yes,Yes,Yes,Yes,A1,Principal referral,PR
49,NSW,Springwood,,1175D2140,,Y,19,Hospital,0012730Y,7-9 Huntley Grange RD,Springwood 2777,-33.690472,150.570847,Australia,7-9 Huntley Grange RD Springwood 2777 NSW Australia,0,Major Cities,29.2,S1,Small public acute with surgery/obstetrics,Yes,No,Yes,No,D2,Small non-acute,SM
50,NSW,Hawkesbury,17,1175D2290,,N,19,Hospital,0017140B,Cnr Macquarie and Day St,Windsor 2756,-33.611009,150.817898,Australia,Cnr Macquarie and Day St Windsor 2756 NSW Australia,0,Major Cities,97,M,Medium public acute,Yes,Yes,Yes,Yes,B1,Large Major cities,LG
51,NSW,Tresillian Wentworth,,1175D2300,,Y,19,Hospital,,1b Barber AV,Kingswood 2747,-33.75795,150.713226,Australia,1b Barber AV Kingswood 2747 NSW Australia,0,Major Cities,35.5,O1,Early parenting centres,Yes,No,No,No,E5,Mothercraft,WC
52,NSW,Wentworth Psychiatric Services,,1175D2320,,Y,19,Hospital,,Nepean Hospital,Penrith 2750,-33.75208,150.678025,Australia,Nepean Hospital Penrith 2750 NSW Australia,0,Major Cities,11,O5,Unpeered,No,No,No,No,G,Un-peered and other,SP
53,NSW,Lithgow,9,1175L2130,,N,19,Hospital,0011600W,2 Col Drewe DR,Lithgow 2790,-33.49873,150.12738,Australia,2 Col Drewe DR Lithgow 2790 NSW Australia,1,Inner Regional,36.6,S1,Small public acute with surgery/obstetrics,Yes,Yes,Yes,No,C2,Medium (group 2),SM
54,NSW,Portland,,1175L2200,,Y,19,Hospital,0011960T,20 Green ST,Portland 2847,-33.357684,149.9793327,Australia,20 Green ST Portland 2847 NSW Australia,1,Inner Regional,4,VS,Very small public,Yes,No,No,No,G,Un-peered and other,SM
55,NSW,Greenwich,,1176B2080,,Y,19,Hospital,0012510K,97-115 River RD,Greenwich 2065,-33.827759,151.184387,Australia,97-115 River RD Greenwich 2065 NSW Australia,0,Major Cities,78.8,N1,Non-acute public-rehabilitation and GEM,Yes,No,No,No,E9,Other non-acute,SP
56,NSW,Neringah,,1176B2090,,Y,19,Hospital,0010130W,4-12 Neringah AV,Wahroonga South 2076,,,Australia,4-12 Neringah AV Wahroonga South 2076 NSW Australia,0,Major Cities,19,N1,Non-acute public-rehabilitation and GEM,Yes,No,No,No,G,Un-peered and other,SP
57,NSW,Hornsby and Ku-Ring-Gai,13,1176B2100,,N,19,Hospital,0010140T,36-76 Palmerston RD,Hornsby 2077,-33.70163,151.112732,Australia,36-76 Palmerston RD Hornsby 2077 NSW Australia,0,Major Cities,252.7,L,Large public acute,Yes,Yes,Yes,Yes,A1,Principal referral,LG
58,NSW,Manly,14,1176B2120,,N,19,Hospital,0010220T,150 Darley RD,Manly 2095,-33.80278,151.289677,Australia,150 Darley RD Manly 2095 NSW Australia,0,Major Cities,155,L,Large public acute,Yes,Yes,Yes,Yes,B1,Large Major cities,LG
59,NSW,Mona Vale,15,1176B2140,,N,19,Hospital,0012470B,18 Coronation ST,Mona Vale 2103,-33.6861232,151.3078254,Australia,18 Coronation ST Mona Vale 2103 NSW Australia,0,Major Cities,162.4,L,Large public acute,Yes,Yes,Yes,Yes,B1,Large Major cities,LG
60,NSW,Royal North Shore,21,1176B2180,,N,19,Hospital,0010310L,1 Reserve RD,St Leonards 2065,-33.8139905,151.1854793,Australia,1 Reserve RD St Leonards 2065 NSW Australia,0,Major Cities,657.6,PR,Principal referral,Yes,Yes,Yes,Yes,A1,Principal referral,PR
61,NSW,Royal Rehabilitation,,1176B2210,,Y,19,Hospital,0012600J,227 Morrison RD,Ryde 2112,-33.8227811,151.1075736,Australia,227 Morrison RD Ryde 2112 NSW Australia,0,Major Cities,100,N2,Non-acute public-mixed subacute and non-acute,Yes,No,No,No,E4,Rehabilitation,SP
62,NSW,Ryde,14,1176B2240,,N,19,Hospital,0010390X,1 Denistone RD,Eastwood 2122,-33.796211,151.090103,Australia,1 Denistone RD Eastwood 2122 NSW Australia,0,Major Cities,142.1,M,Medium public acute,Yes,Yes,Yes,Yes,B1,Large Major cities,LG
63,NSW,Gosford,27,1177B2020,,N,19,Hospital,0011270X,76 Holden ST,Gosford 2250,-33.421392,151.340527,Australia,76 Holden ST Gosford 2250 NSW Australia,0,Major Cities,478.3,L,Large public acute,Yes,Yes,Yes,Yes,A1,Principal referral,LG
64,NSW,Woy Woy,,1177B2030,,Y,19,Hospital,0012650Y,7 Kathleen ST,Woy Woy 2256,-33.496429,151.322037,Australia,7 Kathleen ST Woy Woy 2256 NSW Australia,0,Major Cities,24.2,N1,Non-acute public-rehabilitation and GEM,Yes,No,No,No,G,Un-peered and other,SP
65,NSW,Long Jetty,,1177B2040,,Y,19,Hospital,0012680T,Wyong Road,Long Jetty 2261,-33.368132,151.468677,Australia,Wyong Road Long Jetty 2261 NSW Australia,0,Major Cities,12,N1,Non-acute public-rehabilitation and GEM,Yes,No,No,No,G,Un-peered and other,SP
66,NSW,Wyong,22,1177B2060,,N,19,Hospital,0012770L,Pacific HWY,Kanwal 2259,-33.260397,151.484401,Australia,Pacific HWY Kanwal 2259 NSW Australia,0,Major Cities,320.7,L,Large public acute,Yes,Yes,Yes,Yes,A1,Principal referral,LG
67,NSW,Armidale,19,1180J2010,,N,19,Hospital,0010570T,226 Rusden ST,Armidale 2350,-30.512011,151.654617,Australia,226 Rusden ST Armidale 2350 NSW Australia,1,Inner Regional,91.9,M,Medium public acute,Yes,Yes,Yes,No,C1,Medium (group 1),LG
68,NSW,Barraba (MPS),,1180J2020,,Y,19,Hospital,0010620Y,1 Edward ST,Barraba 2347,-30.382593,150.610326,Australia,1 Edward ST Barraba 2347 NSW Australia,2,Outer Regional,22,S2,Other small public acute,Yes,Yes,No,No,D1,Small regional acute,SM
69,NSW,Bingara (MPS),,1180J2030,,Y,19,Hospital,0010710X,1 Keera ST,Bingara 2404,-29.86775,150.562134,Australia,1 Keera ST Bingara 2404 NSW Australia,2,Outer Regional,7,S2,Other small public acute,Yes,Yes,No,No,D1,Small regional acute,SM
70,NSW,Boggabri (MPS),,1180J2040,,Y,19,Hospital,0010740L,3 Wee Waa ST,Boggabri 2382,-30.71129,150.040283,Australia,3 Wee Waa ST Boggabri 2382 NSW Australia,2,Outer Regional,19.9,VS,Very small public,Yes,Yes,No,No,G,Un-peered and other,SM
71,NSW,Glen Innes,,1180J2050,,Y,19,Hospital,0011240B,94 Taylor ST,Glen Innes 2370,-29.7326007,151.7318961,Australia,94 Taylor ST Glen Innes 2370 NSW Australia,2,Outer Regional,35.5,S1,Small public acute with surgery/obstetrics,Yes,Yes,Yes,No,D1,Small regional acute,SM
72,NSW,Gunnedah,17,1180J2060,,N,19,Hospital,0011370T,2 Marquis ST,Gunnedah 2380,-30.983231,150.251465,Australia,2 Marquis ST Gunnedah 2380 NSW Australia,2,Outer Regional,33.9,S1,Small public acute with surgery/obstetrics,Yes,Yes,Yes,No,D1,Small regional acute,SM
73,NSW,Guyra (MPS),,1180J2070,,Y,19,Hospital,0011380L,44-48 Sole ST,Guyra 2365,-30.212311,151.679092,Australia,44-48 Sole ST Guyra 2365 NSW Australia,2,Outer Regional,22,S2,Other small public acute,Yes,Yes,No,No,E9,Other non-acute,SM
74,NSW,Inverell,18,1180J2080,,N,19,Hospital,0011460L,41-61 Swanbrook RD,Inverell 2360,-29.7692863,151.1309494,Australia,41-61 Swanbrook RD Inverell 2360 NSW Australia,2,Outer Regional,33.8,S1,Small public acute with surgery/obstetrics,Yes,Yes,Yes,No,C2,Medium (group 2),SM
75,NSW,Manilla (MPS),,1180J2110,,Y,19,Hospital,0011670B,143 Court ST,Manilla 2346,-30.748922,150.723384,Australia,143 Court ST Manilla 2346 NSW Australia,2,Outer Regional,12,S2,Other small public acute,Yes,Yes,No,No,D2,Small non-acute,SM
76,NSW,Moree,3,1180J2120,,N,19,Hospital,0011760A,35 Alice ST,Moree 2400,-29.471277,149.834864,Australia,35 Alice ST Moree 2400 NSW Australia,2,Outer Regional,39.9,S1,Small public acute with surgery/obstetrics,Yes,Yes,Yes,No,C2,Medium (group 2),SM
77,NSW,Narrabri,8,1180J2130,,N,19,Hospital,0011830B,11 Cameron ST,Narrabri 2390,-30.326931,149.7785,Australia,11 Cameron ST Narrabri 2390 NSW Australia,2,Outer Regional,29.7,S1,Small public acute with surgery/obstetrics,Yes,Yes,Yes,No,D1,Small regional acute,SM
78,NSW,Prince Albert Tenterfield,,1180J2140,,Y,19,Hospital,0011970L,1-5 Naas ST,Tenterfield 2372,-29.045521,152.017731,Australia,1-5 Naas ST Tenterfield 2372 NSW Australia,2,Outer Regional,18,S2,Other small public acute,Yes,Yes,No,No,D1,Small regional acute,SM
79,NSW,Quirindi,,1180J2150,,Y,19,Hospital,0011990J,42 Nowland ST,Quirindi 2343,-31.4998234,150.6767751,Australia,42 Nowland ST Quirindi 2343 NSW Australia,2,Outer Regional,20,S2,Other small public acute,Yes,Yes,No,No,D1,Small regional acute,SM
80,NSW,Tamworth,22,1180J2160,,N,19,Hospital,0012090T,31 Dean ST,North Tamworth 2340,-31.076974,150.92263,Australia,31 Dean ST North Tamworth 2340 NSW Australia,1,Inner Regional,246,L,Large public acute,Yes,Yes,Yes,Yes,A1,Principal referral,LG
81,NSW,Tingha (MPS),,1180J2170,,Y,19,Hospital,0012130A,1 Inverell RD,Tingha 2369,-29.78199,151.118332,Australia,1 Inverell RD Tingha 2369 NSW Australia,2,Outer Regional,0,OT,Outpatient hospital,No,Yes,No,No,G,Un-peered and other,SP
83,NSW,Walcha (MPS),,1180J2190,,Y,19,Hospital,0012270K,7 South ST,Walcha 2354,-30.98394,151.590485,Australia,7 South ST Walcha 2354 NSW Australia,2,Outer Regional,9,S2,Other small public acute,Yes,Yes,No,No,D1,Small regional acute,SM
84,NSW,Warialda (MPS),,1180J2200,,Y,19,Hospital,0012300Y,146 Long ST,Warialda 2402,-29.53833,150.579147,Australia,146 Long ST Warialda 2402 NSW Australia,2,Outer Regional,10.8,S2,Other small public acute,Yes,Yes,No,No,D1,Small regional acute,SM
85,NSW,Wee Waa,,1180J2210,,Y,19,Hospital,0012330T,60 Alma ST,Wee Waa 2388,-30.2247012,149.4483101,Australia,60 Alma ST Wee Waa 2388 NSW Australia,2,Outer Regional,14,S2,Other small public acute,Yes,Yes,No,No,D1,Small regional acute,SM
86,NSW,Werris Creek,,1180J2220,,Y,19,Hospital,0012370H,22-34 North ST,Werris Creek 2341,-31.346479,150.652512,Australia,22-34 North ST Werris Creek 2341 NSW Australia,1,Inner Regional,13.6,VS,Very small public,Yes,Yes,No,No,G,Un-peered and other,SM
87,NSW,Bulahdelah - Myall Lakes,,1180J2230,,Y,19,Hospital,0010840J,1 Richmond ST,Bulahdelah 2423,-32.4042454,152.2124386,Australia,1 Richmond ST Bulahdelah 2423 NSW Australia,1,Inner Regional,0,VS,Very small public,No,Yes,No,No,G,Un-peered and other,SM
88,NSW,Gloucester,,1180J2240,,Y,19,Hospital,0011250A,166 Church ST,Gloucester 2422,-32.0154232,151.9578019,Australia,166 Church ST Gloucester 2422 NSW Australia,1,Inner Regional,19.5,S1,Small public acute with surgery/obstetrics,Yes,Yes,Yes,No,D1,Small regional acute,SM
89,NSW,Manning,26,1180J2250,,N,19,Hospital,0011680A,26 York ST,Taree 2430,-31.910299,152.454941,Australia,26 York ST Taree 2430 NSW Australia,1,Inner Regional,167.3,L,Large public acute,Yes,Yes,Yes,Yes,A1,Principal referral,LG
90,NSW,Wingham,,1180J2260,,Y,19,Hospital,0012610H,32 Bungay RD,Wingham 2429,-31.87731,152.366074,Australia,32 Bungay RD Wingham 2429 NSW Australia,1,Inner Regional,32,N2,Non-acute public-mixed subacute and non-acute,Yes,No,No,No,E4,Rehabilitation,SP
91,NSW,Cessnock,28,1180Q2020,,N,19,Hospital,0010940F,Lot 1 View ST,Cessnock 2325,-32.827461,151.351593,Australia,Lot 1 View ST Cessnock 2325 NSW Australia,1,Inner Regional,50,S1,Small public acute with surgery/obstetrics,Yes,Yes,Yes,No,C2,Medium (group 2),SM
92,NSW,Dungog,,1180Q2030,,Y,19,Hospital,0011190X,58 Hospital RD,Dungog 2420,-32.401371,151.745773,Australia,58 Hospital RD Dungog 2420 NSW Australia,1,Inner Regional,15,S2,Other small public acute,Yes,Yes,No,No,D1,Small regional acute,SM
93,NSW,Kurri Kurri,12,1180Q2050,,N,19,Hospital,0011540L,432 Lang ST,Kurri Kurri 2327,-32.8239861,151.4627599,Australia,432 Lang ST Kurri Kurri 2327 NSW Australia,0,Major Cities,42.3,S1,Small public acute with surgery/obstetrics,Yes,Yes,Yes,No,D2,Small non-acute,SM
94,NSW,Maitland,32,1180Q2060,,N,19,Hospital,0011650H,550 High ST,Maitland 2320,-32.7276929,151.545969,Australia,550 High ST Maitland 2320 NSW Australia,0,Major Cities,194,M,Medium public acute,Yes,Yes,Yes,Yes,B1,Large Major cities,LG
95,NSW,Merriwa (MPS),,1180Q2080,,Y,19,Hospital,0011720J,1 Mackenzie ST,Merriwa 2329,-32.141435,150.355608,Australia,1 Mackenzie ST Merriwa 2329 NSW Australia,2,Outer Regional,8,VS,Very small public,Yes,Yes,No,No,G,Un-peered and other,SM
96,NSW,Muswellbrook,15,1180Q2090,,N,19,Hospital,0010800W,36 Brentwood ST,Muswellbrook 2333,-32.265314,150.900611,Australia,36 Brentwood ST Muswellbrook 2333 NSW Australia,1,Inner Regional,47,S1,Small public acute with surgery/obstetrics,Yes,Yes,Yes,No,C2,Medium (group 2),SM
97,NSW,Denman (MPS),,1180Q2100,,Y,19,Hospital,0010810T,51-53 Ogilvie ST,Denman 2328,-32.38966,150.684525,Australia,51-53 Ogilvie ST Denman 2328 NSW Australia,1,Inner Regional,17,VS,Very small public,No,Yes,No,No,G,Un-peered and other,SM
98,NSW,Calvary Mater Newcastle,20,1180Q2110,,N,19,Hospital,0011870W,4 Edith ST,Waratah 2298,-32.902822,151.720595,Australia,4 Edith ST Waratah 2298 NSW Australia,0,Major Cities,178,L,Large public acute,Yes,Yes,Yes,Yes,B1,Large Major cities,LG
99,NSW,Belmont,19,1180Q2140,,N,19,Hospital,0012550B,16 Croudace Bay RD,Belmont 2280,-33.016431,151.645961,Australia,16 Croudace Bay RD Belmont 2280 NSW Australia,0,Major Cities,98.6,M,Medium public acute,Yes,Yes,Yes,No,C1,Medium (group 1),LG
100,NSW,Scott Memorial Scone,,1180Q2160,,Y,19,Hospital,0012050A,24 Stafford ST,Scone 2337,-32.052422,150.876587,Australia,24 Stafford ST Scone 2337 NSW Australia,1,Inner Regional,29,S1,Small public acute with surgery/obstetrics,Yes,Yes,Yes,No,D1,Small regional acute,SM
101,NSW,Singleton,23,1180Q2170,,N,19,Hospital,0012070X,Lot 20 Dangar RD,Singleton 2330,-32.565708,151.183594,Australia,Lot 20 Dangar RD Singleton 2330 NSW Australia,1,Inner Regional,47.4,S1,Small public acute with surgery/obstetrics,Yes,Yes,Yes,No,C2,Medium (group 2),SM
102,NSW,Murrurundi,,1180Q2190,,Y,19,Hospital,0012390B,59 O'Connell ST,Murrurundi 2338,-31.77022,150.834045,Australia,59 O'Connell ST Murrurundi 2338 NSW Australia,2,Outer Regional,18,S2,Other small public acute,Yes,Yes,No,No,G,Un-peered and other,SM
103,NSW,Tomaree Community,,1180Q2250,,Y,19,Hospital,0010000F,2 Trevally ST,Nelson Bay 2315,-32.720678,152.157827,Australia,2 Trevally ST Nelson Bay 2315 NSW Australia,1,Inner Regional,14,S2,Other small public acute,Yes,Yes,No,No,D1,Small regional acute,SM
104,NSW,John Hunter,21,1180Q2300,,N,19,Hospital,0012790J,156 Kookaburra CCT,New Lambton Heights 2305,-32.922992,151.693001,Australia,156 Kookaburra CCT New Lambton Heights 2305 NSW Australia,0,Major Cities,761.3,PR,Principal referral,Yes,Yes,Yes,Yes,A1,Principal referral,PR
105,NSW,Ballina,20,1181H2010,,N,19,Hospital,0010580L,78-92 Cherry ST,Ballina 2478,-28.863291,153.564453,Australia,78-92 Cherry ST Ballina 2478 NSW Australia,1,Inner Regional,68.8,S1,Small public acute with surgery/obstetrics,Yes,Yes,Yes,No,C2,Medium (group 2),SM
106,NSW,Byron Bay,,1181H2040,,Y,19,Hospital,0010860F,10 Shirley ST,Byron Bay 2481,-28.641951,153.60939,Australia,10 Shirley ST Byron Bay 2481 NSW Australia,1,Inner Regional,19,S2,Other small public acute,Yes,Yes,No,No,D1,Small regional acute,SM
107,NSW,Campbell Coraki,,1181H2050,,Y,19,Hospital,0010880A,1 Spring ST,Coraki 2471,-28.993872,153.276738,Australia,1 Spring ST Coraki 2471 NSW Australia,1,Inner Regional,0.1,VS,Very small public,No,No,No,No,G,Un-peered and other,SM
108,NSW,Casino,21,1181H2060,,N,19,Hospital,0010920J,1 Hotham ST,Casino 2470,-28.84024,153.040131,Australia,1 Hotham ST Casino 2470 NSW Australia,1,Inner Regional,29.1,S1,Small public acute with surgery/obstetrics,Yes,Yes,Yes,No,C2,Medium (group 2),SM
109,NSW,Bonalbo,,1181H2070,,Y,19,Hospital,0010760J,1 Hospital RD,Bonalbo 2469,-28.734696,152.622273,Australia,1 Hospital RD Bonalbo 2469 NSW Australia,2,Outer Regional,0,S2,Other small public acute,Yes,No,No,No,G,Un-peered and other,SM
110,NSW,Grafton,24,1181H2100,,N,19,Hospital,0011300H,174 Arthur ST,Grafton 2460,-29.67573,152.941757,Australia,174 Arthur ST Grafton 2460 NSW Australia,1,Inner Regional,97.3,M,Medium public acute,Yes,Yes,Yes,Yes,B2,Large regional and remote,LG
111,NSW,Kyogle (MPS),,1181H2130,,Y,19,Hospital,0011550K,199 Sumerland Way,Kyogle 2474,-28.6185359,153.0038056,Australia,199 Sumerland Way Kyogle 2474 NSW Australia,1,Inner Regional,36.9,S2,Other small public acute,Yes,No,No,No,D1,Small regional acute,SM
112,NSW,Lismore,31,1181H2140,,N,19,Hospital,0011590B,60 Uralba ST,Lismore 2480,-28.80989,153.289049,Australia,60 Uralba ST Lismore 2480 NSW Australia,1,Inner Regional,249,L,Large public acute,Yes,Yes,Yes,Yes,A1,Principal referral,LG
113,NSW,Nimbin (MPS),,1181H2150,,Y,19,Hospital,0011890L,87 Cullen ST,Nimbin 2480,-28.59396,153.222519,Australia,87 Cullen ST Nimbin 2480 NSW Australia,1,Inner Regional,12.6,VS,Very small public,Yes,No,No,No,G,Un-peered and other,SM
114,NSW,Maclean,26,1181H2170,,N,19,Hospital,0011630K,21 Union ST,Maclean 2463,-29.453819,153.201614,Australia,21 Union ST Maclean 2463 NSW Australia,1,Inner Regional,37.2,S1,Small public acute with surgery/obstetrics,Yes,Yes,Yes,No,C2,Medium (group 2),SM
115,NSW,Mullumbimby,,1181H2200,,Y,19,Hospital,0011800J,1-3 Azalea ST,Mullumbimby 2482,-28.559401,153.492325,Australia,1-3 Azalea ST Mullumbimby 2482 NSW Australia,1,Inner Regional,19,S1,Small public acute with surgery/obstetrics,Yes,Yes,No,No,D1,Small regional acute,SM
116,NSW,Murwillumbah,,1181H2210,,Y,19,Hospital,0012210A,8 Ewing ST,Murwillumbah 2484,-28.323629,153.400345,Australia,8 Ewing ST Murwillumbah 2484 NSW Australia,1,Inner Regional,70.8,S1,Small public acute with surgery/obstetrics,Yes,Yes,Yes,No,C1,Medium (group 1),SM
117,NSW,St. Vincent's Lismore,,1181H2220,,Y,19,Hospital,0012040B,20 Dalley AV,Lismore 2480,-28.820311,153.287033,Australia,20 Dalley AV Lismore 2480 NSW Australia,1,Inner Regional,0,O5,Unpeered,No,No,No,No,E4,Rehabilitation,SP
118,NSW,The Tweed Hospital,12,1181H2230,,N,19,Hospital,0012690L,14 Powell ST,Tweed Heads 2485,-28.175131,153.544449,Australia,14 Powell ST Tweed Heads 2485 NSW Australia,0,Major Cities,229.8,L,Large public acute,Yes,Yes,Yes,Yes,A1,Principal referral,LG
119,NSW,Urbenville (MPS),,1181H2240,,Y,19,Hospital,0012230X,45 Beaury ST,Urbenville 2475,-28.4720693,152.5426319,Australia,45 Beaury ST Urbenville 2475 NSW Australia,2,Outer Regional,22,VS,Very small public,Yes,No,No,No,E2,Multi-purpose services,SM
120,NSW,Riverlands Drug and Alcohol Centre,,1181H2670,,Y,19,Hospital,0011590B,Cnr Uralba & Hunter Streets,Lismore 2480,,,Australia,Cnr Uralba & Hunter Streets Lismore 2480 NSW Australia,1,Inner Regional,14,O2,Drug and alcohol hospital,Yes,No,No,No,G,Un-peered and other,SP
121,NSW,Bellinger River,,1182H2030,,Y,19,Hospital,0010680J,43 Church ST,Bellingen 2454,-30.45664,152.894653,Australia,43 Church ST Bellingen 2454 NSW Australia,2,Outer Regional,30.4,S1,Small public acute with surgery/obstetrics,Yes,No,Yes,No,D2,Small non-acute,SM
122,NSW,Coffs Harbour,15,1182H2080,,N,19,Hospital,0010960A,345 Pacific HWY,Coffs Harbour 2450,-30.3149682,153.0921162,Australia,345 Pacific HWY Coffs Harbour 2450 NSW Australia,1,Inner Regional,254,L,Large public acute,Yes,Yes,Yes,Yes,A1,Principal referral,LG
123,NSW,Dorrigo (MPS),,1182H2090,,Y,19,Hospital,0011160B,14 Beech ST,Dorrigo 2453,-30.340827,152.714273,Australia,14 Beech ST Dorrigo 2453 NSW Australia,2,Outer Regional,27,S2,Other small public acute,Yes,No,No,No,E2,Multi-purpose services,SM
124,NSW,Macleay Valley - Kempsey,14,1182H2120,,N,19,Hospital,0011640J,119 River ST,Kempsey 2440,-31.0688366,152.8200594,Australia,119 River ST Kempsey 2440 NSW Australia,1,Inner Regional,68.1,M,Medium public acute,Yes,Yes,Yes,No,C1,Medium (group 1),LG
125,NSW,Macksville,23,1182H2160,,N,19,Hospital,0011820F,14-22 Boundary ST,Macksville 2447,-30.713831,152.920273,Australia,14-22 Boundary ST Macksville 2447 NSW Australia,2,Outer Regional,46.2,S1,Small public acute with surgery/obstetrics,Yes,No,Yes,No,C2,Medium (group 2),SM
126,NSW,Wauchope,,1182H2250,,Y,19,Hospital,0012320W,69 High ST,Wauchope 2446,-31.458407,152.7363488,Australia,69 High ST Wauchope 2446 NSW Australia,1,Inner Regional,32.2,S1,Small public acute with surgery/obstetrics,Yes,No,Yes,No,D2,Small non-acute,SM
127,NSW,Port Macquarie,18,1182H2720,,N,19,Hospital,,1-31 Wrights RD,Port Macquarie 2444,-31.452821,152.875936,Australia,1-31 Wrights RD Port Macquarie 2444 NSW Australia,1,Inner Regional,169.6,L,Large public acute,Yes,Yes,Yes,Yes,A1,Principal referral,LG
128,NSW,Batemans Bay,23,1183N2010,,N,19,Hospital,0010640W,7 Pacific ST,Batemans Bay 2536,-35.714039,150.182755,Australia,7 Pacific ST Batemans Bay 2536 NSW Australia,1,Inner Regional,38.9,S1,Small public acute with surgery/obstetrics,Yes,Yes,Yes,No,C2,Medium (group 2),SM
129,NSW,Bega,24,1183N2020,,N,19,Hospital,0010670K,1 McKee DR,Bega 2550,-36.681306,149.838068,Australia,1 McKee DR Bega 2550 NSW Australia,2,Outer Regional,70.1,M,Medium public acute,Yes,Yes,Yes,No,C1,Medium (group 1),LG
130,NSW,Bombala,,1183N2030,,Y,19,Hospital,0010750K,126 Wellington ST,Bombala 2632,-36.917431,149.235779,Australia,126 Wellington ST Bombala 2632 NSW Australia,2,Outer Regional,18.3,S2,Other small public acute,Yes,No,No,No,D1,Small regional acute,SM
131,NSW,Braidwood (MPS),,1183N2050,,Y,19,Hospital,0010790B,77 Monkittee ST,Braidwood 2622,-35.4432101,149.804859,Australia,77 Monkittee ST Braidwood 2622 NSW Australia,1,Inner Regional,32,S2,Other small public acute,Yes,No,No,No,E2,Multi-purpose services,SM
132,NSW,Cooma HS,,1183N2060,,Y,19,Hospital,0011010W,1 Bent ST,Cooma 2630,-36.24173,149.128906,Australia,1 Bent ST Cooma 2630 NSW Australia,1,Inner Regional,39.5,S1,Small public acute with surgery/obstetrics,Yes,No,Yes,No,C2,Medium (group 2),SM
133,NSW,Crookwell,,1183N2070,,Y,19,Hospital,0011100T,17 Kialla RD,Crookwell 2583,-34.464989,149.467865,Australia,17 Kialla RD Crookwell 2583 NSW Australia,1,Inner Regional,18,S2,Other small public acute,Yes,No,No,No,D2,Small non-acute,SM
134,NSW,Delegate (MPS),,1183N2080,,Y,19,Hospital,0011140H,15 Craigie ST,Delegate 2633,-37.044231,148.945877,Australia,15 Craigie ST Delegate 2633 NSW Australia,2,Outer Regional,13,VS,Very small public,No,No,No,No,E2,Multi-purpose services,SM
135,NSW,Goulburn,,1183N2090,,Y,19,Hospital,0011280W,130 Goldsmith ST,Goulburn 2580,-34.7472292,149.7141346,Australia,130 Goldsmith ST Goulburn 2580 NSW Australia,1,Inner Regional,108.9,M,Medium public acute,Yes,Yes,Yes,Yes,B2,Large regional and remote,LG
136,NSW,Moruya,26,1183N2110,,N,19,Hospital,0011780X,2-10 River ST,Moruya 2537,-35.90406,150.070435,Australia,2-10 River ST Moruya 2537 NSW Australia,1,Inner Regional,59.9,S1,Small public acute with surgery/obstetrics,Yes,Yes,Yes,No,C1,Medium (group 1),SM
137,NSW,Pambula,,1183N2140,,Y,19,Hospital,0011930Y,1 Merimbola ST,Pambula 2549,-36.928679,149.877371,Australia,1 Merimbola ST Pambula 2549 NSW Australia,2,Outer Regional,29.8,S2,Other small public acute,Yes,No,Yes,No,D1,Small regional acute,SM
138,NSW,Queanbeyan,27,1183N2150,,N,19,Hospital,0011980K,16 Erin ST,Queanbeyan 2620,-35.345989,149.233063,Australia,16 Erin ST Queanbeyan 2620 NSW Australia,0,Major Cities,45.2,S1,Small public acute with surgery/obstetrics,Yes,No,Yes,No,C2,Medium (group 2),SM
139,NSW,Bourke Street Health Service,,1183N2160,,Y,19,Hospital,0012020H,234 Bourke ST,Goulburn 2580,-34.748718,149.719315,Australia,234 Bourke ST Goulburn 2580 NSW Australia,1,Inner Regional,49.1,N1,Non-acute public-rehabilitation and GEM,Yes,No,No,No,E9,Other non-acute,SP
140,NSW,Yass,,1183N2170,,Y,19,Hospital,0012420L,145 Meehan ST,Yass 2582,-34.839935,148.914892,Australia,145 Meehan ST Yass 2582 NSW Australia,1,Inner Regional,10,S2,Other small public acute,Yes,No,No,No,D1,Small regional acute,SM
141,NSW,Lake Cargelligo (MPS),,1184L2120,,Y,19,Hospital,0011560J,1 Uabba ST,Lake Cargelligo 2672,-33.291466,146.375259,Australia,1 Uabba ST Lake Cargelligo 2672 NSW Australia,3,Remote,22,S2,Other small public acute,Yes,No,No,No,E2,Multi-purpose services,SM
142,NSW,Wyalong,,1184L2260,,Y,19,Hospital,0012410T,70 Ungarie RD,West Wyalong 2671,-33.919864,147.19909,Australia,70 Ungarie RD West Wyalong 2671 NSW Australia,2,Outer Regional,22,S2,Other small public acute,Yes,No,No,No,D1,Small regional acute,SM
143,NSW,Barham Koondrook,,1184M2030,,Y,19,Hospital,0010610A,70 Punt RD,Barham 2732,-35.630255,144.133259,Australia,70 Punt RD Barham 2732 NSW Australia,2,Outer Regional,18,S2,Other small public acute,Yes,No,No,No,D2,Small non-acute,SM
144,NSW,Berrigan (MPS),,1184M2040,,Y,19,Hospital,0010700Y,137 Memorial Place,Berrigan 2712,-35.661718,145.81346,Australia,137 Memorial Place Berrigan 2712 NSW Australia,2,Outer Regional,4,S2,Other small public acute,Yes,No,No,No,D1,Small regional acute,SM
145,NSW,Culcairn (MPS),,1184M2050,,Y,19,Hospital,0011120K,51-55 Balfour ST,Culcairn 2660,-35.667431,147.041824,Australia,51-55 Balfour ST Culcairn 2660 NSW Australia,1,Inner Regional,27,S2,Other small public acute,Yes,No,No,No,E2,Multi-purpose services,SM
146,NSW,Corowa,,1184M2060,,Y,19,Hospital,0011080B,53 Guy ST,Corowa 2646,-35.993591,146.383408,Australia,53 Guy ST Corowa 2646 NSW Australia,1,Inner Regional,50.5,S1,Small public acute with surgery/obstetrics,Yes,No,Yes,No,D1,Small regional acute,SM
147,NSW,Deniliquin,4,1184M2070,,N,19,Hospital,0011150F,411 Charlotte ST,Deniliquin 2710,-35.5243441,144.9623537,Australia,411 Charlotte ST Deniliquin 2710 NSW Australia,1,Inner Regional,44.2,S1,Small public acute with surgery/obstetrics,Yes,No,Yes,No,C2,Medium (group 2),SM
148,NSW,Finley,,1184M2080,,Y,19,Hospital,0011210J,24 Dawe AV,Finley 2713,-35.64122,145.567459,Australia,24 Dawe AV Finley 2713 NSW Australia,1,Inner Regional,14.9,S2,Other small public acute,Yes,No,No,No,D1,Small regional acute,SM
149,NSW,Henty (MPS),,1184M2090,,Y,19,Hospital,0011430X,7 Keighran ST,Henty 2658,-35.515513,147.031636,Australia,7 Keighran ST Henty 2658 NSW Australia,1,Inner Regional,3,VS,Very small public,Yes,No,No,No,G,Un-peered and other,SM
150,NSW,Holbrook,,1184M2100,,Y,19,Hospital,0011450T,1 Bowler ST,Holbrook 2644,-35.721432,147.307007,Australia,1 Bowler ST Holbrook 2644 NSW Australia,1,Inner Regional,26,S2,Other small public acute,Yes,No,No,No,D2,Small non-acute,SM
151,NSW,Jerilderie (MPS),,1184M2110,,Y,19,Hospital,0011500Y,33-39 Southey ST,Jerilderie 2716,-35.359248,145.721795,Australia,33-39 Southey ST Jerilderie 2716 NSW Australia,2,Outer Regional,3,S2,Other small public acute,Yes,No,No,No,G,Un-peered and other,SM
152,NSW,Mercy Care Centre Albury,,1184M2120,,Y,19,Hospital,0011690Y,550 Poole ST,Albury 2640,-36.069241,146.916718,Australia,550 Poole ST Albury 2640 NSW Australia,1,Inner Regional,30,N1,Non-acute public-rehabilitation and GEM,Yes,No,No,No,E9,Other non-acute,SP
153,NSW,Urana (MPS),,1184M2130,,Y,19,Hospital,0011620L,127 Princess ST,Urana 2645,-35.3261156,146.267209,Australia,127 Princess ST Urana 2645 NSW Australia,2,Outer Regional,22,VS,Very small public,Yes,No,No,No,E2,Multi-purpose services,SM
154,NSW,Tocumwal,,1184M2140,,Y,19,Hospital,0012140Y,1 Adams ST,Tocumwal 2714,-35.816639,145.568253,Australia,1 Adams ST Tocumwal 2714 NSW Australia,1,Inner Regional,16,S2,Other small public acute,Yes,No,No,No,D2,Small non-acute,SM
155,NSW,Tumbarumba (MPS),,1184M2150,,Y,19,Hospital,0012180L,4 Mitchell ST,Tumbarumba 2653,-35.778713,148.005743,Australia,4 Mitchell ST Tumbarumba 2653 NSW Australia,2,Outer Regional,42.5,S2,Other small public acute,Yes,No,No,No,E2,Multi-purpose services,SM
156,NSW,Boorowa,,1184N2040,,Y,19,Hospital,0010770H,62-80 Dry ST,Boorowa 2586,-34.443119,148.727066,Australia,62-80 Dry ST Boorowa 2586 NSW Australia,1,Inner Regional,5.1,S2,Other small public acute,Yes,No,No,No,D1,Small regional acute,SM
157,NSW,Mercy Care Centre Young,,1184N2100,,Y,19,Hospital,0011710K,69 Demondrille ST,Young 2594,-34.32119,148.288788,Australia,69 Demondrille ST Young 2594 NSW Australia,1,Inner Regional,26,N1,Non-acute public-rehabilitation and GEM,Yes,No,No,No,E9,Other non-acute,SP
158,NSW,Murrumburrah - Harden,14,1184N2130,,N,19,Hospital,0011810H,54 Swift ST,Harden 2587,-34.5552912,148.3615816,Australia,54 Swift ST Harden 2587 NSW Australia,1,Inner Regional,13,S2,Other small public acute,Yes,No,No,No,D1,Small regional acute,SM
159,NSW,Young,8,1184N2180,,N,19,Hospital,0012430K,68 Allanan ST,Young 2594,-34.320709,148.288254,Australia,68 Allanan ST Young 2594 NSW Australia,1,Inner Regional,28,S1,Small public acute with surgery/obstetrics,Yes,No,Yes,No,C2,Medium (group 2),SM
160,NSW,Batlow/Adelong (MPS),,1184R2020,,Y,19,Hospital,0010660L,61-81 Pioneer ST,Batlow 2730,-35.522949,148.147995,Australia,61-81 Pioneer ST Batlow 2730 NSW Australia,2,Outer Regional,5,VS,Very small public,Yes,No,No,No,G,Un-peered and other,SM
161,NSW,Griffith,16,1184R2050,,N,19,Hospital,0011340Y,1 Noorebar AV,Griffith 2680,-34.283203,146.044917,Australia,1 Noorebar AV Griffith 2680 NSW Australia,2,Outer Regional,88.3,L,Large public acute,Yes,Yes,Yes,No,C1,Medium (group 1),LG
162,NSW,Gundagai,,1184R2060,,Y,19,Hospital,0011360W,50 Tor ST,Gundagai 2722,-35.05209,148.102066,Australia,50 Tor ST Gundagai 2722 NSW Australia,1,Inner Regional,18.4,S2,Other small public acute,Yes,No,No,No,D2,Small non-acute,SM
163,NSW,Hay,,1184R2070,,Y,19,Hospital,0011410A,351 Murray ST,Hay 2711,-34.500629,144.850662,Australia,351 Murray ST Hay 2711 NSW Australia,2,Outer Regional,28,S2,Other small public acute,Yes,No,No,No,G,Un-peered and other,SM
164,NSW,Hillston,,1184R2080,,Y,19,Hospital,0011440W,48C Burns ST,Hillston 2675,-33.478889,145.53894,Australia,48C Burns ST Hillston 2675 NSW Australia,3,Remote,16,S2,Other small public acute,Yes,No,No,No,D2,Small non-acute,SM
165,NSW,Junee (MPS),,1184R2090,,Y,19,Hospital,0011510X,67 Broadway ST,Junee 2663,-34.866909,147.580887,Australia,67 Broadway ST Junee 2663 NSW Australia,1,Inner Regional,34,S2,Other small public acute,Yes,No,No,No,D2,Small non-acute,SM
166,NSW,Coolamon (MPS),,1184R2100,,Y,19,Hospital,0011520W,1 Buchanan DR,Coolamon 2701,-34.820209,147.199661,Australia,1 Buchanan DR Coolamon 2701 NSW Australia,1,Inner Regional,14,S2,Other small public acute,Yes,No,No,No,E2,Multi-purpose services,SM
167,NSW,Leeton,,1184R2110,,Y,19,Hospital,0011570H,1 Wade AV,Leeton 2705,-34.645994,146.419724,Australia,1 Wade AV Leeton 2705 NSW Australia,2,Outer Regional,67,S1,Small public acute with surgery/obstetrics,Yes,No,Yes,No,D1,Small regional acute,SM
168,NSW,Lockhart,,1184R2130,,Y,19,Hospital,0011610T,53-55 Hebden ST,Lockhart 2656,-35.222328,146.719055,Australia,53-55 Hebden ST Lockhart 2656 NSW Australia,2,Outer Regional,15.6,S2,Other small public acute,Yes,No,No,No,G,Un-peered and other,SM
169,NSW,Narrandera,,1184R2150,,Y,19,Hospital,0011840A,56-64 Adams ST,Narrandera 2700,-34.74242,146.547501,Australia,56-64 Adams ST Narrandera 2700 NSW Australia,2,Outer Regional,25.7,S1,Small public acute with surgery/obstetrics,Yes,No,Yes,No,D1,Small regional acute,SM
170,NSW,Temora,,1184R2160,,Y,19,Hospital,0012100H,119 Gloucester ST,Temora 2666,-34.4440645,147.5420585,Australia,119 Gloucester ST Temora 2666 NSW Australia,2,Outer Regional,26,S1,Small public acute with surgery/obstetrics,Yes,No,Yes,No,D1,Small regional acute,SM
171,NSW,Tumut,2,1184R2180,,N,19,Hospital,0012190K,105 Simpson ST,Tumut 2720,-35.3061631,148.219804,Australia,105 Simpson ST Tumut 2720 NSW Australia,1,Inner Regional,31.5,S1,Small public acute with surgery/obstetrics,Yes,No,Yes,No,D1,Small regional acute,SM
172,NSW,Wagga Wagga,14,1184R2190,,N,19,Hospital,0012250T,260 Edward ST,Wagga Wagga 2650,-35.117779,147.358414,Australia,260 Edward ST Wagga Wagga 2650 NSW Australia,1,Inner Regional,238.3,L,Large public acute,Yes,Yes,Yes,Yes,A1,Principal referral,LG
173,NSW,Cootamundra,,1184R2210,,Y,19,Hospital,0011070F,120 MacKay ST,Cootamundra 2590,-34.635342,148.013962,Australia,120 MacKay ST Cootamundra 2590 NSW Australia,1,Inner Regional,25.3,S1,Small public acute with surgery/obstetrics,Yes,No,Yes,No,D1,Small regional acute,SM
174,NSW,Bourke (MPS),,1185K2010,,Y,19,Hospital,0010780F,26 Tarcoon ST,Bourke 2840,-30.0913162,145.9470065,Australia,26 Tarcoon ST Bourke 2840 NSW Australia,4,Very remote,20,S2,Other small public acute,Yes,No,Yes,No,D3,Small remote acute,SM
175,NSW,Brewarrina (MPS),,1185K2020,,Y,19,Hospital,0010820L,56 Doyle ST,Brewarrina 2839,-29.9622885,146.8640209,Australia,56 Doyle ST Brewarrina 2839 NSW Australia,4,Very remote,20,S2,Other small public acute,Yes,No,No,No,D3,Small remote acute,SM
176,NSW,Cobar,,1185K2030,,Y,19,Hospital,0010950B,1 Lerida RD,Cobar 2835,-31.537354,145.808433,Australia,1 Lerida RD Cobar 2835 NSW Australia,3,Remote,10.5,S2,Other small public acute,Yes,No,No,No,D3,Small remote acute,SM
177,NSW,Collarenebri (MPS),,1185K2040,,Y,19,Hospital,0010980X,1 Walgett ST,Collarenebri 2833,-29.54586,148.578934,Australia,1 Walgett ST Collarenebri 2833 NSW Australia,3,Remote,13,VS,Very small public,Yes,No,No,No,G,Un-peered and other,SM
178,NSW,Coolah (MPS),,1185K2050,,Y,19,Hospital,0011000X,111 Martin ST,Coolah 2843,-31.8224703,149.7098216,Australia,111 Martin ST Coolah 2843 NSW Australia,2,Outer Regional,27,S2,Other small public acute,Yes,No,No,No,G,Un-peered and other,SM
179,NSW,Coonabarabran,,1185K2060,,Y,19,Hospital,0011020T,101 Edwards ST,Coonabarabran 2357,-31.2755128,149.2849379,Australia,101 Edwards ST Coonabarabran 2357 NSW Australia,2,Outer Regional,25,S2,Other small public acute,Yes,No,Yes,No,D1,Small regional acute,SM
180,NSW,Baradine (MPS),,1185K2070,,Y,19,Hospital,0011030L,5-9 Darling ST,Baradine 2396,-30.9444576,149.0676212,Australia,5-9 Darling ST Baradine 2396 NSW Australia,3,Remote,17,S2,Other small public acute,Yes,No,No,No,E2,Multi-purpose services,SM
181,NSW,Coonamble (MPS),,1185K2090,,Y,19,Hospital,0011050J,150 Castlereagh ST,Coonamble 2829,-30.951887,148.388802,Australia,150 Castlereagh ST Coonamble 2829 NSW Australia,3,Remote,25.1,S2,Other small public acute,Yes,No,No,No,D3,Small remote acute,SM
182,NSW,Gulargambone (MPS),,1185K2100,,Y,19,Hospital,0011060H,47 Bourbah ST,Gulargambone 2828,-31.3295317,148.4700701,Australia,47 Bourbah ST Gulargambone 2828 NSW Australia,2,Outer Regional,12,VS,Very small public,No,No,No,No,G,Un-peered and other,SM
183,NSW,Dubbo,18,1185K2110,,N,19,Hospital,0011170A,1 Myall ST,Dubbo 2830,-32.241249,148.615845,Australia,1 Myall ST Dubbo 2830 NSW Australia,1,Inner Regional,159.3,L,Large public acute,Yes,Yes,Yes,Yes,A1,Principal referral,LG
184,NSW,Dunedoo (MPS),,1185K2120,,Y,19,Hospital,0011180Y,70 Digilah ST,Dunedoo 2844,-32.01739,149.39449,Australia,70 Digilah ST Dunedoo 2844 NSW Australia,2,Outer Regional,5,VS,Very small public,Yes,No,No,No,G,Un-peered and other,SM
185,NSW,Gilgandra (MPS),,1185K2130,,Y,19,Hospital,0011230F,6 Chelmsford AV,Gilgandra 2827,-31.704361,148.655695,Australia,6 Chelmsford AV Gilgandra 2827 NSW Australia,2,Outer Regional,31,S2,Other small public acute,Yes,No,No,No,D2,Small non-acute,SM
186,NSW,Goodooga,,1185K2140,,Y,19,Hospital,0011260Y,49 Hammond ST,Goodooga 2831,-29.114426,147.453004,Australia,49 Hammond ST Goodooga 2831 NSW Australia,4,Very remote,0,OT,Outpatient hospital,No,No,No,No,G,Un-peered and other,SP
187,NSW,Gulgong,,1185K2150,,Y,19,Hospital,0011350X,112 Mayne ST,Gulgong 2852,-32.362202,149.532883,Australia,112 Mayne ST Gulgong 2852 NSW Australia,2,Outer Regional,0,OT,Outpatient hospital,No,No,No,No,G,Un-peered and other,SP
188,NSW,Mudgee,,1185K2160,,Y,19,Hospital,0011790W,139 Church ST,Mudgee 2850,-32.6079866,149.5852098,Australia,139 Church ST Mudgee 2850 NSW Australia,1,Inner Regional,40.2,S1,Small public acute with surgery/obstetrics,Yes,No,Yes,No,C2,Medium (group 2),SM
189,NSW,Narromine,,1185K2170,,Y,19,Hospital,0011850Y,128 Cathundral ST,Narromine 2821,-32.24268,148.239197,Australia,128 Cathundral ST Narromine 2821 NSW Australia,2,Outer Regional,25,S2,Other small public acute,Yes,No,No,No,D2,Small non-acute,SM
190,NSW,Nyngan (MPS),,1185K2180,,Y,19,Hospital,0011900F,15 Hoskins ST,Nyngan 2825,-31.5618941,147.2027609,Australia,15 Hoskins ST Nyngan 2825 NSW Australia,3,Remote,6,S2,Other small public acute,Yes,No,No,No,D3,Small remote acute,SM
191,NSW,Trangie (MPS),,1185K2190,,Y,19,Hospital,0012160W,28 Harris ST,Trangie 2823,-32.0311117,147.9764239,Australia,28 Harris ST Trangie 2823 NSW Australia,2,Outer Regional,20,VS,Very small public,Yes,No,No,No,E2,Multi-purpose services,SM
192,NSW,Walgett,,1185K2200,,Y,19,Hospital,0012280J,141 Fox ST,Walgett 2832,-30.026724,148.115809,Australia,141 Fox ST Walgett 2832 NSW Australia,3,Remote,21.2,S2,Other small public acute,Yes,No,No,No,D3,Small remote acute,SM
193,NSW,Warren (MPS),,1185K2210,,Y,19,Hospital,0012310X,176 Doctor Kater DR,Warren 2824,-31.694155,147.837298,Australia,176 Doctor Kater DR Warren 2824 NSW Australia,2,Outer Regional,42,S2,Other small public acute,Yes,No,No,No,E2,Multi-purpose services,SM
194,NSW,Wellington,,1185K2220,,Y,19,Hospital,0012350K,30 Thornton ST,Wellington 2820,-32.5497705,148.9510113,Australia,30 Thornton ST Wellington 2820 NSW Australia,2,Outer Regional,22,S2,Other small public acute,Yes,No,No,No,D2,Small non-acute,SM
195,NSW,Lightning Ridge (MPS),,1185K2310,,Y,19,Hospital,0012850L,Lot 25 Pandora ST,Lightning Ridge 2834,-29.42812,147.98645,Australia,Lot 25 Pandora ST Lightning Ridge 2834 NSW Australia,3,Remote,24.1,S2,Other small public acute,Yes,No,No,No,E2,Multi-purpose services,SM
196,NSW,Lourdes Dubbo,,1185K7510,,Y,19,Hospital,0012840T,110 Cobbora RD,Dubbo 2830,-32.2392796,148.6275733,Australia,110 Cobbora RD Dubbo 2830 NSW Australia,1,Inner Regional,34,N2,Non-acute public-mixed subacute and non-acute,Yes,No,No,No,G,Un-peered and other,SP
197,NSW,Bathurst,11,1185L2010,,N,19,Hospital,0010650T,361 Howick ST,Bathurst 2795,-33.414941,149.579224,Australia,361 Howick ST Bathurst 2795 NSW Australia,1,Inner Regional,115.4,L,Large public acute,Yes,Yes,Yes,Yes,B2,Large regional and remote,LG
198,NSW,Blayney (MPS),,1185L2020,,Y,19,Hospital,0010720W,3 Osman ST,Blayney 2799,-33.5378292,149.2516708,Australia,3 Osman ST Blayney 2799 NSW Australia,1,Inner Regional,25.1,VS,Very small public,Yes,No,No,No,G,Un-peered and other,SM
199,NSW,Canowindra,,1185L2030,,Y,19,Hospital,0010890Y,1 Browns AV,Canowindra 2804,-33.570881,148.658936,Australia,1 Browns AV Canowindra 2804 NSW Australia,1,Inner Regional,18.6,S2,Other small public acute,Yes,No,No,No,D2,Small non-acute,SM
200,NSW,Condobolin,,1185L2050,,Y,19,Hospital,0010990W,1 Madline ST,Condobolin 2877,-33.0827462,147.1520654,Australia,1 Madline ST Condobolin 2877 NSW Australia,2,Outer Regional,22,S2,Other small public acute,Yes,No,No,No,D1,Small regional acute,SM
201,NSW,Cowra,,1185L2060,,Y,19,Hospital,0011090A,64 Liverpool ST,Cowra 2794,-33.832401,148.692245,Australia,64 Liverpool ST Cowra 2794 NSW Australia,1,Inner Regional,32.1,S1,Small public acute with surgery/obstetrics,Yes,No,Yes,No,C2,Medium (group 2),SM
202,NSW,Cudal,,1185L2070,,Y,19,Hospital,,Cnr Cargo and Toogong Streets,Cudal 2864,-33.2862816,148.740036,Australia,Cnr Cargo and Toogong Streets Cudal 2864 NSW Australia,2,Outer Regional,0,OT,Outpatient hospital,No,No,No,No,G,Un-peered and other,SP
203,NSW,Eugowra (MPS),,1185L2080,,Y,19,Hospital,0011200K,1 Cooper ST,Eugowra 2806,-33.425165,148.366526,Australia,1 Cooper ST Eugowra 2806 NSW Australia,2,Outer Regional,12.2,VS,Very small public,Yes,No,No,No,G,Un-peered and other,SM
204,NSW,Forbes,,1185L2090,,Y,19,Hospital,0011220H,Lot 1 Elgin ST,Forbes 2871,-33.395831,148.01466,Australia,Lot 1 Elgin ST Forbes 2871 NSW Australia,2,Outer Regional,36,S1,Small public acute with surgery/obstetrics,Yes,No,Yes,No,D1,Small regional acute,SM
205,NSW,Grenfell (MPS),,1185L2100,,Y,19,Hospital,0011320B,80-96 Cowra RD,Grenfell 2810,-33.873216,147.946866,Australia,80-96 Cowra RD Grenfell 2810 NSW Australia,2,Outer Regional,34,VS,Very small public,Yes,No,No,No,E2,Multi-purpose services,SM
206,NSW,Molong,,1185L2140,,Y,19,Hospital,0011750B,130 King ST,Molong 2866,-33.092826,148.858412,Australia,130 King ST Molong 2866 NSW Australia,1,Inner Regional,27,S2,Other small public acute,Yes,No,No,No,G,Un-peered and other,SM
207,NSW,Oberon (MPS),,1185L2150,,Y,19,Hospital,0011910B,67-73 North ST,Oberon 2787,-33.705391,149.853027,Australia,67-73 North ST Oberon 2787 NSW Australia,1,Inner Regional,30,S2,Other small public acute,Yes,No,No,No,E2,Multi-purpose services,SM
208,NSW,Orange Health Service,14,1185L2160,,N,19,Hospital,0011920A,1502 Forest RD,Orange 2800,-33.3209,149.095047,Australia,1502 Forest RD Orange 2800 NSW Australia,1,Inner Regional,318.8,L,Large public acute,Yes,Yes,Yes,Yes,A1,Principal referral,LG
209,NSW,Parkes,,1185L2170,,Y,19,Hospital,0011940X,18 Coleman RD,Parkes 2870,-33.127319,148.170227,Australia,18 Coleman RD Parkes 2870 NSW Australia,2,Outer Regional,35.2,S1,Small public acute with surgery/obstetrics,Yes,No,Yes,No,D1,Small regional acute,SM
210,NSW,Peak Hill,,1185L2180,,Y,19,Hospital,0011950W,111 Newell HWY,Peak Hill 2869,-32.725868,148.192108,Australia,111 Newell HWY Peak Hill 2869 NSW Australia,2,Outer Regional,13.4,VS,Very small public,Yes,No,No,No,G,Un-peered and other,SM
211,NSW,Trundle (MPS),,1185L2190,,Y,19,Hospital,0012580X,44 Brookview ST,Trundle 2875,-32.9181728,147.704867,Australia,44 Brookview ST Trundle 2875 NSW Australia,2,Outer Regional,11,VS,Very small public,Yes,No,No,No,E2,Multi-purpose services,SM
212,NSW,Rylstone (MPS),,1185L2210,,Y,19,Hospital,0012010J,24 Fitzgerald ST,Rylstone 2849,-32.803574,149.975431,Australia,24 Fitzgerald ST Rylstone 2849 NSW Australia,2,Outer Regional,26,S2,Other small public acute,Yes,No,No,No,D1,Small regional acute,SM
213,NSW,Tottenham (MPS),,1185L2230,,Y,19,Hospital,0012150X,Lot 10 Moondana ST,Tottenham 2873,-32.242875,147.356717,Australia,Lot 10 Moondana ST Tottenham 2873 NSW Australia,3,Remote,3.6,VS,Very small public,Yes,No,No,No,G,Un-peered and other,SM
214,NSW,Tullamore (MPS),,1185L2240,,Y,19,Hospital,0012170T,1 Hinkler ST,Tullamore 2874,-32.635493,147.5692847,Australia,1 Hinkler ST Tullamore 2874 NSW Australia,2,Outer Regional,3.9,VS,Very small public,Yes,No,No,No,G,Un-peered and other,SM
215,NSW,Menindee Health Service,,1186K1010,,Y,19,Hospital,,Perry ST,Menindee 2879,-32.391976,142.417485,Australia,Perry ST Menindee 2879 NSW Australia,4,Very remote,0,OT,Outpatient hospital,No,No,No,No,E2,Multi-purpose services,SP
216,NSW,Balranald (MPS),,1186M2020,,Y,19,Hospital,0010590K,41-43 Court ST,Balranald 2715,-34.6451,143.569427,Australia,41-43 Court ST Balranald 2715 NSW Australia,2,Outer Regional,8,S2,Other small public acute,Yes,No,No,No,D1,Small regional acute,SM
217,NSW,Wentworth,,1186M2160,,Y,19,Hospital,0012360J,1 Silver City HWY,Wentworth 2648,-34.040667,141.837914,Australia,1 Silver City HWY Wentworth 2648 NSW Australia,2,Outer Regional,20,VS,Very small public,Yes,No,No,No,G,Un-peered and other,SM
218,NSW,Broken Hill,26,1186S2010,,N,19,Hospital,0010830K,176 Thomas ST,Broken Hill 2880,-31.947395,141.456696,Australia,176 Thomas ST Broken Hill 2880 NSW Australia,2,Outer Regional,95.8,M,Medium public acute,Yes,Yes,Yes,No,C1,Medium (group 1),LG
219,NSW,Ivanhoe,,1186S2020,,Y,19,Hospital,0011490H,1 Columbus ST,Ivanhoe 2878,-32.896016,144.29739,Australia,1 Columbus ST Ivanhoe 2878 NSW Australia,4,Very remote,0,OT,Outpatient hospital,No,No,No,No,G,Un-peered and other,SP
220,NSW,Tibooburra,,1186S2030,,Y,19,Hospital,0012120B,1 Sturt ST,Tibooburra 2880,-29.431748,142.012546,Australia,1 Sturt ST Tibooburra 2880 NSW Australia,4,Very remote,0,OT,Outpatient hospital,No,No,No,No,G,Un-peered and other,SP
221,NSW,Wilcannia (MPS),,1186S2040,,Y,19,Hospital,0012380F,14 Ross ST,Wilcannia 2836,-31.556391,143.385315,Australia,14 Ross ST Wilcannia 2836 NSW Australia,4,Very remote,8,VS,Very small public,Yes,No,No,No,E2,Multi-purpose services,SM
222,NSW,Thomas Walker,,1470A2360,,Y,19,Hospital,,Hospital RD,Concord Repatriation Hospital 2139,-33.8397516,151.0881882,Australia,Hospital RD Concord Repatriation Hospital 2139 NSW Australia,0,Major Cities,16.3,Ps,Psychiatric public,Yes,No,No,No,F,Psychiatric,PS
223,NSW,Cumberland,,1474D1020,,Y,19,Hospital,,1-11 Hainsworth ST,Westmead 2145,-33.8039352,150.9948693,Australia,1-11 Hainsworth ST Westmead 2145 NSW Australia,0,Major Cities,310.3,Ps,Psychiatric public,Yes,No,No,No,F,Psychiatric,PS
224,NSW,Macquarie,,1476B1010,,Y,19,Hospital,,1 Wicks RD,North Ryde 2113,-33.788659,151.133176,Australia,1 Wicks RD North Ryde 2113 NSW Australia,0,Major Cities,193.9,Ps,Psychiatric public,Yes,No,No,No,F,Psychiatric,PS
225,NSW,Coral Tree Family Centre,,1476B2410,,Y,19,Hospital,,Pacific HWY,North Ryde 2113,-30.5089543,153.0028989,Australia,Pacific HWY North Ryde 2113 NSW Australia,0,Major Cities,10,Ps,Psychiatric public,Yes,No,No,No,F,Psychiatric,PS
226,NSW,Morisset,,1480Q1010,,Y,19,Hospital,,143 Dora ST,Morisset 2264,-33.1127955,151.47854,Australia,143 Dora ST Morisset 2264 NSW Australia,0,Major Cities,129.6,Ps,Psychiatric public,Yes,No,No,No,F,Psychiatric,PS
227,NSW,Hunter New England Mater Mental Health Service,,1480Q1020,,Y,19,Hospital,,72 Watt ST,Newcastle 2300,-32.931301,151.78186,Australia,72 Watt ST Newcastle 2300 NSW Australia,0,Major Cities,119.9,Ps,Psychiatric public,Yes,No,No,No,F,Psychiatric,PS
228,NSW,Kenmore,,1483N1010,,Y,19,Hospital,,Taralga RD,Goulburn 2580,-34.718222,149.752403,Australia,Taralga RD Goulburn 2580 NSW Australia,1,Inner Regional,54,Ps,Psychiatric public,Yes,No,No,No,F,Psychiatric,PS
229,NT,Royal Darwin Hospital,,717100071,,Y,35,Hospital,,Rocklands DV,Tiwi 810,-19.718396,138.064108,Australia,Rocklands DV Tiwi 810 NT Australia,2,Outer Regional,367,PR,Principal referral,Yes,Yes,Yes,Yes,A1,Principal referral,PR
230,NT,Alice Springs Hospital,,717100072,,Y,35,Hospital,,Gap RD,Alice Springs 870,-23.704875,133.880189,Australia,Gap RD Alice Springs 870 NT Australia,3,Remote,183,L,Large public acute,Yes,Yes,Yes,Yes,A1,Principal referral,LG
231,NT,Tennant Creek Hospital,,717100073,,Y,35,Hospital,,Schmidt ST,Tennant Creek 860,-19.643612,134.189067,Australia,Schmidt ST Tennant Creek 860 NT Australia,4,Very remote,20,S1,Small public acute with surgery/obstetrics,Yes,Yes,Yes,No,D3,Small remote acute,SM
232,NT,Katherine Hospital,,717100074,,Y,35,Hospital,,Gorge RD,Katherine 850,-14.43906,132.276915,Australia,Gorge RD Katherine 850 NT Australia,3,Remote,60,S1,Small public acute with surgery/obstetrics,Yes,Yes,Yes,No,D3,Small remote acute,SM
233,NT,Gove Hospital,,717100075,,Y,35,Hospital,,Mathew Flinders WAY,Nhulunbuy 880,-12.186582,136.78085,Australia,Mathew Flinders WAY Nhulunbuy 880 NT Australia,4,Very remote,34,S1,Small public acute with surgery/obstetrics,Yes,Yes,Yes,No,D3,Small remote acute,SM
234,QLD,MATER ADULT HOSPITAL,15,310000001,,N,18,Hospital,,Raymond Terrace,South Brisbane 4101,-27.484992,153.02786,Australia,Raymond Terrace South Brisbane 4101 QLD Australia,0,Major Cities,262,L,Large public acute,Yes,Yes,Yes,Yes,A1,Principal referral,LG
235,QLD,MATER CHILDREN'S HOSPITAL,34,310000002,,N,18,Hospital,,Raymond Terrace,South Brisbane 4101,-27.484992,153.02786,Australia,Raymond Terrace South Brisbane 4101 QLD Australia,0,Major Cities,161,W3,Childrens,Yes,Yes,Yes,Yes,A2,Specialist womens and childrens,WC
236,QLD,MATER MOTHERS' HOSPITAL,,310000003,,Y,18,Hospital,,Raymond Terrace,South Brisbane 4101,-27.484992,153.02786,Australia,Raymond Terrace South Brisbane 4101 QLD Australia,0,Major Cities,128,W1,Womens,Yes,No,Yes,Yes,A2,Specialist womens and childrens,WC
237,QLD,THE PRINCE CHARLES HOSPITAL,20,310000004,,N,18,Hospital,,Rode Road,Chermside 4032,-27.391664,153.013247,Australia,Rode Road Chermside 4032 QLD Australia,0,Major Cities,624,PR,Principal referral,Yes,Yes,Yes,Yes,A1,Principal referral,PR
238,QLD,ROYAL CHILDREN'S HOSPITAL,13,310000007,,N,18,Hospital,,Herston Road,Herston 4006,-27.449736,153.026814,Australia,Herston Road Herston 4006 QLD Australia,0,Major Cities,201,W3,Childrens,Yes,Yes,Yes,Yes,A2,Specialist womens and childrens,WC
239,QLD,PRINCESS ALEXANDRA HOSPITAL,10,310000011,,N,18,Hospital,,199 Ipswich Road,Woolloongabba 4102,-27.496084,153.034923,Australia,199 Ipswich Road Woolloongabba 4102 QLD Australia,0,Major Cities,944,PR,Principal referral,Yes,Yes,Yes,Yes,A1,Principal referral,PR
240,QLD,IPSWICH HOSPITAL,26,310000015,,N,18,Hospital,,Chelmsford Avenue,Ipswich 4305,-27.618858,152.755733,Australia,Chelmsford Avenue Ipswich 4305 QLD Australia,0,Major Cities,341,L,Large public acute,Yes,Yes,Yes,Yes,A1,Principal referral,LG
241,QLD,REDCLIFFE HOSPITAL,28,310000016,,N,18,Hospital,,Anzac Avenue,Redcliffe 4020,-27.229972,153.107761,Australia,Anzac Avenue Redcliffe 4020 QLD Australia,0,Major Cities,352,L,Large public acute,Yes,Yes,Yes,Yes,A1,Principal referral,LG
242,QLD,ELLEN BARRON FAMILY CENTRE,,310000017,,Y,18,Hospital,,Hamilton Road,Chermside 4032,-27.38242,153.00759,Australia,Hamilton Road Chermside 4032 QLD Australia,0,Major Cities,48,O1,Early parenting centres,Yes,No,No,No,E5,Mothercraft,WC
243,QLD,QUEEN ELIZABETH II JUBILEE HOSPITAL,16,310000022,,N,18,Hospital,,Corner of Kessels and Troughton Roads,Coopers Plains 4108,-27.5592594,153.0489655,Australia,Corner of Kessels and Troughton Roads Coopers Plains 4108 QLD Australia,0,Major Cities,165,L,Large public acute,Yes,Yes,Yes,Yes,A1,Principal referral,LG
244,QLD,WYNNUM HOSPITAL,,310000024,,Y,18,Hospital,,Whites Road,Lota 4179,-27.469725,153.1833,Australia,Whites Road Lota 4179 QLD Australia,0,Major Cities,21,N1,Non-acute public-rehabilitation and GEM,Yes,No,No,No,G,Un-peered and other,SP
245,QLD,MARIE ROSE CENTRE,,310000025,,Y,18,Hospital,,Corner of Petrie Street and Oxley Parade,Dunwich 4183,-27.4975358,153.399811,Australia,Corner of Petrie Street and Oxley Parade Dunwich 4183 QLD Australia,2,Outer Regional,0,VS,Very small public,Yes,No,No,No,G,Un-peered and other,SM
246,QLD,REDLAND HOSPITAL,26,310000028,,N,18,Hospital,,Weippin Street,Cleveland 4163,-27.541482,153.250821,Australia,Weippin Street Cleveland 4163 QLD Australia,0,Major Cities,151,M,Medium public acute,Yes,Yes,Yes,Yes,B1,Large Major cities,LG
247,QLD,LOGAN HOSPITAL,21,310000029,,N,18,Hospital,,Corner of Armstrong and Loganlea Roads,Meadowbrook 4131,-27.67029,153.1415558,Australia,Corner of Armstrong and Loganlea Roads Meadowbrook 4131 QLD Australia,0,Major Cities,332,L,Large public acute,Yes,Yes,Yes,Yes,A1,Principal referral,LG
248,QLD,CABOOLTURE HOSPITAL,23,310000030,,N,18,Hospital,,McKean Street,Caboolture 4510,-27.078739,152.957281,Australia,McKean Street Caboolture 4510 QLD Australia,0,Major Cities,223,M,Medium public acute,Yes,Yes,Yes,Yes,A1,Principal referral,LG
249,QLD,BEAUDESERT HOSPITAL,,310000041,,Y,18,Hospital,,64 Tina Street,Beaudesert 4285,-27.98568,153.002304,Australia,64 Tina Street Beaudesert 4285 QLD Australia,1,Inner Regional,22,S2,Other small public acute,Yes,No,Yes,No,D2,Small non-acute,SM
250,QLD,BOONAH HOSPITAL,,310000042,,Y,18,Hospital,,11-17 Leonard Street,Boonah 4310,-27.9991052,152.6780064,Australia,11-17 Leonard Street Boonah 4310 QLD Australia,1,Inner Regional,23,S2,Other small public acute,Yes,No,No,No,D2,Small non-acute,SM
251,QLD,CALOUNDRA HOSPITAL,15,310000043,,N,18,Hospital,,West Terrace,Caloundra 4551,-26.795872,153.100839,Australia,West Terrace Caloundra 4551 QLD Australia,0,Major Cities,88,M,Medium public acute,Yes,Yes,Yes,No,C1,Medium (group 1),LG
252,QLD,ESK HOSPITAL,,310000044,,Y,18,Hospital,,30 Highland Street,Esk 4312,-27.2404,152.418137,Australia,30 Highland Street Esk 4312 QLD Australia,1,Inner Regional,20,S2,Other small public acute,Yes,No,No,No,D1,Small regional acute,SM
253,QLD,GATTON HOSPITAL,,310000045,,Y,18,Hospital,,97-103 William Street,Gatton 4343,-27.56682,152.27623,Australia,97-103 William Street Gatton 4343 QLD Australia,1,Inner Regional,22,S2,Other small public acute,Yes,No,No,No,D2,Small non-acute,SM
254,QLD,KILCOY HOSPITAL,,310000046,,Y,18,Hospital,,19 Brown Street,Kilcoy 4515,-26.93817,152.56187,Australia,19 Brown Street Kilcoy 4515 QLD Australia,1,Inner Regional,21,S2,Other small public acute,Yes,No,No,No,D2,Small non-acute,SM
255,QLD,LAIDLEY HOSPITAL,,310000047,,Y,18,Hospital,,75 William Street,Laidley 4341,-27.632553,152.401252,Australia,75 William Street Laidley 4341 QLD Australia,1,Inner Regional,15,S2,Other small public acute,Yes,No,No,No,D2,Small non-acute,SM
256,QLD,MALENY HOSPITAL,,310000048,,Y,18,Hospital,,Bean Street,Maleny 4552,-26.755055,152.845489,Australia,Bean Street Maleny 4552 QLD Australia,1,Inner Regional,24,S2,Other small public acute,Yes,No,No,No,D2,Small non-acute,SM
257,QLD,NAMBOUR HOSPITAL,19,310000049,,N,18,Hospital,,Hospital Road,Nambour 4560,-26.622058,152.953151,Australia,Hospital Road Nambour 4560 QLD Australia,0,Major Cities,441,L,Large public acute,Yes,Yes,Yes,Yes,A1,Principal referral,LG
258,QLD,GOLD COAST HOSPITAL,31,310000050,,N,18,Hospital,,1 Hospital Boulevard,Southport 4215,-27.9709702,153.4088898,Australia,1 Hospital Boulevard Southport 4215 QLD Australia,0,Major Cities,570,PR,Principal referral,Yes,Yes,Yes,Yes,A1,Principal referral,PR
259,QLD,BIGGENDEN HOSPITAL,,310000061,,Y,18,Hospital,,Alice Street,Biggenden 4621,-25.506506,152.050372,Australia,Alice Street Biggenden 4621 QLD Australia,2,Outer Regional,7,S2,Other small public acute,Yes,No,No,No,D1,Small regional acute,SM
260,QLD,BUNDABERG HOSPITAL,18,310000062,,N,18,Hospital,,Bourbong Street,Bundaberg 4670,-24.864543,152.354305,Australia,Bourbong Street Bundaberg 4670 QLD Australia,1,Inner Regional,243,L,Large public acute,Yes,Yes,Yes,Yes,A1,Principal referral,LG
261,QLD,CHERBOURG HOSPITAL,,310000063,,Y,18,Hospital,,Fisher Street,Cherbourg 4605,-26.294919,151.95432,Australia,Fisher Street Cherbourg 4605 QLD Australia,2,Outer Regional,17,S1,Small public acute with surgery/obstetrics,Yes,No,No,No,D1,Small regional acute,SM
262,QLD,CHILDERS HOSPITAL,,310000064,,Y,18,Hospital,,44 Broadhurst Street,Childers 4660,-25.2398181,152.2740162,Australia,44 Broadhurst Street Childers 4660 QLD Australia,1,Inner Regional,14,S2,Other small public acute,Yes,No,No,No,D2,Small non-acute,SM
263,QLD,EIDSVOLD HOSPITAL,,310000065,,Y,18,Hospital,,Cracow Road,Eidsvold 4627,-25.381791,150.854992,Australia,Cracow Road Eidsvold 4627 QLD Australia,2,Outer Regional,6,S2,Other small public acute,Yes,No,No,No,G,Un-peered and other,SM
264,QLD,GAYNDAH HOSPITAL,,310000066,,Y,18,Hospital,,69 Warton Street,Gayndah 4625,-25.628291,151.605718,Australia,69 Warton Street Gayndah 4625 QLD Australia,2,Outer Regional,12,S2,Other small public acute,Yes,No,No,No,D2,Small non-acute,SM
265,QLD,GIN GIN HOSPITAL,,310000067,,Y,18,Hospital,,5 King Street,Gin Gin 4671,-24.9868289,151.9534439,Australia,5 King Street Gin Gin 4671 QLD Australia,2,Outer Regional,6,S2,Other small public acute,Yes,No,No,No,D1,Small regional acute,SM
266,QLD,GYMPIE HOSPITAL,14,310000068,,N,18,Hospital,,12 Henry Street,Gympie 4570,-26.33453,152.818054,Australia,12 Henry Street Gympie 4570 QLD Australia,1,Inner Regional,89,M,Medium public acute,Yes,Yes,Yes,No,C1,Medium (group 1),LG
267,QLD,HERVEY BAY HOSPITAL,19,310000069,,N,18,Hospital,,Corner of Nissen and Uraween Roads,Pialba 4655,-25.2991905,152.8212585,Australia,Corner of Nissen and Uraween Roads Pialba 4655 QLD Australia,1,Inner Regional,151,L,Large public acute,Yes,Yes,Yes,Yes,A1,Principal referral,LG
268,QLD,KINGAROY HOSPITAL,,310000070,,Y,18,Hospital,,166 Youngman Street,Kingaroy 4610,-26.532261,151.838882,Australia,166 Youngman Street Kingaroy 4610 QLD Australia,1,Inner Regional,47,S1,Small public acute with surgery/obstetrics,Yes,No,Yes,No,C2,Medium (group 2),SM
269,QLD,MARYBOROUGH HOSPITAL,18,310000071,,N,18,Hospital,,185 Walker Street,Maryborough 4650,-25.5237264,152.6905369,Australia,185 Walker Street Maryborough 4650 QLD Australia,1,Inner Regional,98,M,Medium public acute,Yes,Yes,Yes,No,C1,Medium (group 1),LG
270,QLD,MONTO HOSPITAL,,310000072,,Y,18,Hospital,,35 Flinders Street,Monto 4630,-24.86137,151.108705,Australia,35 Flinders Street Monto 4630 QLD Australia,2,Outer Regional,14,S2,Other small public acute,Yes,No,No,No,D2,Small non-acute,SM
271,QLD,MOUNT PERRY HEALTH CENTRE,,310000073,,Y,18,Hospital,,150 Heussman Street,Mount Perry 4671,-25.1812741,151.6467064,Australia,150 Heussman Street Mount Perry 4671 QLD Australia,2,Outer Regional,2,VS,Very small public,Yes,No,No,No,G,Un-peered and other,SM
272,QLD,MUNDUBBERA HOSPITAL,,310000074,,Y,18,Hospital,,96 Leichhardt Street,Mundubbera 4626,-25.587111,151.294128,Australia,96 Leichhardt Street Mundubbera 4626 QLD Australia,2,Outer Regional,6,S2,Other small public acute,Yes,No,No,No,E2,Multi-purpose services,SM
273,QLD,MURGON HOSPITAL,,310000075,,Y,18,Hospital,,Coronation Drive,Murgon 4605,-26.238049,151.947373,Australia,Coronation Drive Murgon 4605 QLD Australia,2,Outer Regional,15,S2,Other small public acute,Yes,No,No,No,D1,Small regional acute,SM
274,QLD,NANANGO HOSPITAL,,310000076,,Y,18,Hospital,,135 Brisbane Street,Nanango 4615,-26.66646,152.008316,Australia,135 Brisbane Street Nanango 4615 QLD Australia,1,Inner Regional,10,S2,Other small public acute,Yes,No,No,No,D2,Small non-acute,SM
275,QLD,WONDAI HOSPITAL,,310000077,,Y,18,Hospital,,Bramston Street,Wondai 4606,-26.321374,151.878202,Australia,Bramston Street Wondai 4606 QLD Australia,2,Outer Regional,5,VS,Very small public,Yes,No,No,No,G,Un-peered and other,SM
276,QLD,CHINCHILLA HOSPITAL,,310000091,,Y,18,Hospital,,Slessar Street,Chinchilla 4413,-26.744844,150.639785,Australia,Slessar Street Chinchilla 4413 QLD Australia,2,Outer Regional,26,S1,Small public acute with surgery/obstetrics,Yes,No,No,No,D1,Small regional acute,SM
277,QLD,DALBY HOSPITAL,,310000092,,Y,18,Hospital,,Hospital Road,Dalby 4405,-27.17078,151.276139,Australia,Hospital Road Dalby 4405 QLD Australia,1,Inner Regional,46,S1,Small public acute with surgery/obstetrics,Yes,No,No,No,C2,Medium (group 2),SM
278,QLD,GOONDIWINDI HOSPITAL,,310000093,,Y,18,Hospital,,Bowen Street,Goondiwindi 4390,-28.548471,150.308452,Australia,Bowen Street Goondiwindi 4390 QLD Australia,2,Outer Regional,37,S1,Small public acute with surgery/obstetrics,Yes,No,No,No,D1,Small regional acute,SM
279,QLD,INGLEWOOD HOSPITAL,,310000094,,Y,18,Hospital,,Cunningham Highway,Inglewood 4387,-28.411846,151.105305,Australia,Cunningham Highway Inglewood 4387 QLD Australia,2,Outer Regional,12,S2,Other small public acute,Yes,No,No,No,E2,Multi-purpose services,SM
280,QLD,JANDOWAE HOSPITAL,,310000095,,Y,18,Hospital,,13 Dalby Street,Jandowae 4410,-26.777516,151.111943,Australia,13 Dalby Street Jandowae 4410 QLD Australia,2,Outer Regional,12,VS,Very small public,Yes,No,No,No,G,Un-peered and other,SM
281,QLD,MILES HOSPITAL,,310000097,,Y,18,Hospital,,26 Colamba Street,Miles 4415,-26.655199,150.192734,Australia,26 Colamba Street Miles 4415 QLD Australia,2,Outer Regional,13,S2,Other small public acute,Yes,No,No,No,D1,Small regional acute,SM
282,QLD,MILLMERRAN HOSPITAL,,310000098,,Y,18,Hospital,,50 Commens Street,Millmerran 4357,-27.8782099,151.2635958,Australia,50 Commens Street Millmerran 4357 QLD Australia,1,Inner Regional,11,S2,Other small public acute,Yes,No,No,No,D1,Small regional acute,SM
283,QLD,OAKEY HOSPITAL,,310000099,,Y,18,Hospital,,Corner Beale and Fitzpatrick Streets,Oakey 4401,,,Australia,Corner Beale and Fitzpatrick Streets Oakey 4401 QLD Australia,1,Inner Regional,9,S2,Other small public acute,Yes,No,No,No,D2,Small non-acute,SM
284,QLD,STANTHORPE HOSPITAL,,310000100,,Y,18,Hospital,,8 McGregor Terrace,Stanthorpe 4380,-28.66095,151.928543,Australia,8 McGregor Terrace Stanthorpe 4380 QLD Australia,2,Outer Regional,46,S1,Small public acute with surgery/obstetrics,Yes,No,No,No,D1,Small regional acute,SM
285,QLD,TARA HOSPITAL,,310000101,,Y,18,Hospital,,15 Bilton Street,Tara 4421,-27.274079,150.455735,Australia,15 Bilton Street Tara 4421 QLD Australia,2,Outer Regional,15,S2,Other small public acute,Yes,No,No,No,D1,Small regional acute,SM
286,QLD,TAROOM HOSPITAL,,310000102,,Y,18,Hospital,,Miller Street,Taroom 4420,-25.638949,149.798008,Australia,Miller Street Taroom 4420 QLD Australia,3,Remote,13,S2,Other small public acute,Yes,No,No,No,D3,Small remote acute,SM
287,QLD,TEXAS HOSPITAL,,310000103,,Y,18,Hospital,,Mingoola Road,Texas 4385,-28.858034,151.178874,Australia,Mingoola Road Texas 4385 QLD Australia,2,Outer Regional,10,S2,Other small public acute,Yes,No,No,No,E2,Multi-purpose services,SM
288,QLD,TOOWOOMBA HOSPITAL,18,310000104,,N,18,Hospital,,Pechey Street,Toowoomba 4350,-27.570523,151.946729,Australia,Pechey Street Toowoomba 4350 QLD Australia,1,Inner Regional,305,L,Large public acute,Yes,Yes,Yes,Yes,A1,Principal referral,LG
289,QLD,WARWICK HOSPITAL,,310000105,,Y,18,Hospital,,56 Locke Street,Warwick 4370,-28.22438,152.017944,Australia,56 Locke Street Warwick 4370 QLD Australia,1,Inner Regional,66,S1,Small public acute with surgery/obstetrics,Yes,No,No,No,C2,Medium (group 2),SM
290,QLD,WANDOAN HOSPITAL,,310000106,,Y,18,Hospital,,14 Henderson Road,Wandoan 4419,-26.1187555,149.9562992,Australia,14 Henderson Road Wandoan 4419 QLD Australia,3,Remote,2,OT,Outpatient hospital,No,No,No,No,G,Un-peered and other,SP
291,QLD,AUGATHELLA HOSPITAL,,310000111,,Y,18,Hospital,,Cavanagh Street,Augathella 4477,-25.795384,146.58937,Australia,Cavanagh Street Augathella 4477 QLD Australia,4,Very remote,6,VS,Very small public,Yes,No,No,No,G,Un-peered and other,SM
292,QLD,CHARLEVILLE HOSPITAL,,310000112,,Y,18,Hospital,,72 King Street,Charleville 4470,-26.40041,146.253021,Australia,72 King Street Charleville 4470 QLD Australia,4,Very remote,30,S1,Small public acute with surgery/obstetrics,Yes,No,No,No,D3,Small remote acute,SM
293,QLD,CUNNAMULLA HOSPITAL,,310000113,,Y,18,Hospital,,56 Wicks Street,Cunnamulla 4490,-28.07089,145.689087,Australia,56 Wicks Street Cunnamulla 4490 QLD Australia,4,Very remote,20,S2,Other small public acute,Yes,No,No,No,D3,Small remote acute,SM
294,QLD,DIRRANBANDI HOSPITAL,,310000114,,Y,18,Hospital,,Corner of Jane and Cowildi Streets,Dirranbandi 4486,,,Australia,Corner of Jane and Cowildi Streets Dirranbandi 4486 QLD Australia,4,Very remote,7,S2,Other small public acute,Yes,No,No,No,E2,Multi-purpose services,SM
295,QLD,INJUNE HOSPITAL,,310000115,,Y,18,Hospital,,Fifth Avenue,Injune 4454,-25.846659,148.562968,Australia,Fifth Avenue Injune 4454 QLD Australia,4,Very remote,6,S2,Other small public acute,Yes,No,No,No,G,Un-peered and other,SM
296,QLD,MITCHELL HOSPITAL,,310000116,,Y,18,Hospital,,95 Ann Street,Mitchell 4465,-26.481906,147.969779,Australia,95 Ann Street Mitchell 4465 QLD Australia,4,Very remote,13,S2,Other small public acute,Yes,No,No,No,D3,Small remote acute,SM
297,QLD,MUNGINDI HOSPITAL,,310000117,,Y,18,Hospital,,Barwon Street,Mungindi 2406,-28.977707,148.994661,Australia,Barwon Street Mungindi 2406 QLD Australia,3,Remote,8,S2,Other small public acute,Yes,No,No,No,G,Un-peered and other,SM
298,QLD,QUILPIE HOSPITAL,,310000118,,Y,18,Hospital,,30 Gyrica Street,Quilpie 4480,-26.615913,144.273846,Australia,30 Gyrica Street Quilpie 4480 QLD Australia,4,Very remote,6,VS,Very small public,Yes,No,No,No,E2,Multi-purpose services,SM
299,QLD,ROMA HOSPITAL,,310000119,,Y,18,Hospital,,197-234 Mcdowall Street,Roma 4455,-26.570801,148.783079,Australia,197-234 Mcdowall Street Roma 4455 QLD Australia,2,Outer Regional,52,S1,Small public acute with surgery/obstetrics,Yes,No,No,No,D1,Small regional acute,SM
300,QLD,ST GEORGE HOSPITAL,,310000120,,Y,18,Hospital,,1 Victoria Street,St George 4487,-28.045414,148.569096,Australia,1 Victoria Street St George 4487 QLD Australia,3,Remote,34,S1,Small public acute with surgery/obstetrics,Yes,No,No,No,D3,Small remote acute,SM
301,QLD,SURAT HOSPITAL,,310000121,,Y,18,Hospital,,Ivan Street,Surat 4417,-27.156315,149.065174,Australia,Ivan Street Surat 4417 QLD Australia,3,Remote,7,S2,Other small public acute,Yes,No,No,No,G,Un-peered and other,SM
302,QLD,THARGOMINDAH HOSPITAL,,310000122,,Y,18,Hospital,,Dowling Street,Thargomindah 4492,-27.995679,143.825265,Australia,Dowling Street Thargomindah 4492 QLD Australia,4,Very remote,0,OT,Outpatient hospital,No,No,No,No,G,Un-peered and other,SP
303,QLD,WALLUMBILLA OUTPATIENTS CLINIC,,310000123,,Y,18,Hospital,,Raslie Road,Wallumbilla 4428,-26.501779,149.141749,Australia,Raslie Road Wallumbilla 4428 QLD Australia,3,Remote,0,OT,Outpatient hospital,No,No,No,No,G,Un-peered and other,SP
304,QLD,ALPHA HOSPITAL,,310000131,,Y,18,Hospital,,Gordon Street,Alpha 4724,-23.654364,146.634624,Australia,Gordon Street Alpha 4724 QLD Australia,4,Very remote,5,VS,Very small public,Yes,No,No,No,G,Un-peered and other,SM
305,QLD,BARALABA HOSPITAL,,310000132,,Y,18,Hospital,,Stopford Street,Baralaba 4702,-24.18029,149.811789,Australia,Stopford Street Baralaba 4702 QLD Australia,2,Outer Regional,5,VS,Very small public,Yes,No,No,No,G,Un-peered and other,SM
306,QLD,BILOELA HOSPITAL,,310000133,,Y,18,Hospital,,2 Hospital Road,Biloela 4715,-24.39599,150.517654,Australia,2 Hospital Road Biloela 4715 QLD Australia,2,Outer Regional,25,S1,Small public acute with surgery/obstetrics,Yes,No,No,No,D1,Small regional acute,SM
307,QLD,BLACKWATER HOSPITAL,,310000134,,Y,18,Hospital,,Mackenzie Street,Blackwater 4717,-23.578291,148.878608,Australia,Mackenzie Street Blackwater 4717 QLD Australia,2,Outer Regional,10,S2,Other small public acute,Yes,No,No,No,D1,Small regional acute,SM
308,QLD,EMERALD HOSPITAL,,310000135,,Y,18,Hospital,,69 Hospital Road,Emerald 4720,-23.511979,148.156001,Australia,69 Hospital Road Emerald 4720 QLD Australia,2,Outer Regional,37,S1,Small public acute with surgery/obstetrics,Yes,No,Yes,No,C2,Medium (group 2),SM
309,QLD,GLADSTONE HOSPITAL,11,310000136,,N,18,Hospital,,Park Street,Gladstone 4680,-23.852101,151.246509,Australia,Park Street Gladstone 4680 QLD Australia,1,Inner Regional,78,M,Medium public acute,Yes,Yes,Yes,No,C1,Medium (group 1),LG
310,QLD,MOUNT MORGAN HOSPITAL,,310000139,,Y,18,Hospital,,Black Street,Mount Morgan 4714,-23.645829,150.391843,Australia,Black Street Mount Morgan 4714 QLD Australia,1,Inner Regional,10,S2,Other small public acute,Yes,No,No,No,D2,Small non-acute,SM
311,QLD,MOURA HOSPITAL,,310000140,,Y,18,Hospital,,14 Nott Street,Moura 4718,-24.57901,149.977698,Australia,14 Nott Street Moura 4718 QLD Australia,2,Outer Regional,10,S2,Other small public acute,Yes,No,No,No,D1,Small regional acute,SM
312,QLD,ROCKHAMPTON BASE HOSPITAL,17,310000141,,N,18,Hospital,,Canning Street,Rockhampton 4700,-23.385269,150.500171,Australia,Canning Street Rockhampton 4700 QLD Australia,1,Inner Regional,246,L,Large public acute,Yes,Yes,Yes,Yes,A1,Principal referral,LG
313,QLD,SPRINGSURE HOSPITAL,,310000142,,Y,18,Hospital,,Woodbine Street,Springsure 4722,-24.120066,148.085764,Australia,Woodbine Street Springsure 4722 QLD Australia,3,Remote,12,S2,Other small public acute,Yes,No,No,No,G,Un-peered and other,SM
314,QLD,THEODORE HOSPITAL,,310000143,,Y,18,Hospital,,The Boulevard,Theodore 4719,-24.948127,150.075444,Australia,The Boulevard Theodore 4719 QLD Australia,2,Outer Regional,6,S2,Other small public acute,Yes,No,No,No,D1,Small regional acute,SM
315,QLD,CAPRICORN COAST HOSPITAL & HEALTH SERVICE,,310000144,,Y,18,Hospital,,8 Hoskyn Drive,Yeppoon 4703,-23.1441528,150.7347308,Australia,8 Hoskyn Drive Yeppoon 4703 QLD Australia,1,Inner Regional,28,S1,Small public acute with surgery/obstetrics,Yes,No,No,No,C2,Medium (group 2),SM
316,QLD,WOORABINDA HOSPITAL,,310000145,,Y,18,Hospital,,1 Munns Drive,Woorabinda 4702,-24.1313992,149.4556122,Australia,1 Munns Drive Woorabinda 4702 QLD Australia,3,Remote,7,S2,Other small public acute,Yes,No,No,No,E2,Multi-purpose services,SM
317,QLD,ARAMAC HOSPITAL,,310000151,,Y,18,Hospital,,Lodge Street,Aramac 4726,-22.971868,145.245091,Australia,Lodge Street Aramac 4726 QLD Australia,4,Very remote,0,OT,Outpatient hospital,No,No,No,No,G,Un-peered and other,SP
318,QLD,BARCALDINE HOSPITAL,,310000152,,Y,18,Hospital,,Oak Street,Barcaldine 4725,-23.552552,145.293724,Australia,Oak Street Barcaldine 4725 QLD Australia,4,Very remote,12,S2,Other small public acute,Yes,No,No,No,D2,Small non-acute,SM
319,QLD,BLACKALL HOSPITAL,,310000153,,Y,18,Hospital,,Shamrock Street,Blackall 4472,-24.423772,145.462893,Australia,Shamrock Street Blackall 4472 QLD Australia,4,Very remote,16,S2,Other small public acute,Yes,No,No,No,D3,Small remote acute,SM
320,QLD,BOULIA PRIMARY HEALTH CENTRE,,310000154,,Y,18,Hospital,,Wills Street,Boulia 4829,-22.910818,139.90949,Australia,Wills Street Boulia 4829 QLD Australia,4,Very remote,0,OT,Outpatient hospital,No,No,No,No,G,Un-peered and other,SP
321,QLD,JUNDAH PRIMARY HEALTH CENTRE,,310000155,,Y,18,Hospital,,1 Hospital Road,Jundah 4736,-24.821664,143.066577,Australia,1 Hospital Road Jundah 4736 QLD Australia,4,Very remote,0,OT,Outpatient hospital,No,No,No,No,G,Un-peered and other,SP
322,QLD,LONGREACH HOSPITAL,,310000156,,Y,18,Hospital,,Jabiru Street,Longreach 4730,-23.437245,144.262015,Australia,Jabiru Street Longreach 4730 QLD Australia,4,Very remote,31,S1,Small public acute with surgery/obstetrics,Yes,No,No,No,D3,Small remote acute,SM
323,QLD,MUTTABURRA PRIMARY HEALTH CENTRE,,310000157,,Y,18,Hospital,,Edkins Street,Muttaburra 4732,-22.593753,144.546921,Australia,Edkins Street Muttaburra 4732 QLD Australia,4,Very remote,0,OT,Outpatient hospital,No,No,No,No,G,Un-peered and other,SP
324,QLD,TAMBO PRIMARY HEALTH CENTRE,,310000158,,Y,18,Hospital,,Garden Street,Tambo 4478,-24.879439,146.248018,Australia,Garden Street Tambo 4478 QLD Australia,4,Very remote,0,OT,Outpatient hospital,No,No,No,No,G,Un-peered and other,SP
325,QLD,WINTON HOSPITAL,,310000159,,Y,18,Hospital,,Bloomfield Street,Winton 4735,-27.533232,153.266585,Australia,Bloomfield Street Winton 4735 QLD Australia,4,Very remote,8,S2,Other small public acute,Yes,No,No,No,D2,Small non-acute,SM
326,QLD,ISISFORD PRIMARY HEALTH CENTRE,,310000160,,Y,18,Hospital,,St Helena Street,Isisford 4731,-35.055714,138.592173,Australia,St Helena Street Isisford 4731 QLD Australia,4,Very remote,0,OT,Outpatient hospital,No,No,No,No,G,Un-peered and other,SP
327,QLD,YARAKA CLINIC,,310000161,,Y,18,Hospital,,Jarley Street,Yaraka 4702,-24.883486,144.076649,Australia,Jarley Street Yaraka 4702 QLD Australia,4,Very remote,0,OT,Outpatient hospital,No,No,No,No,G,Un-peered and other,SP
328,QLD,WINDORAH CLINIC,,310000162,,Y,18,Hospital,,Victoria Street,Windorah 4481,-25.421085,142.655706,Australia,Victoria Street Windorah 4481 QLD Australia,4,Very remote,0,OT,Outpatient hospital,No,No,No,No,G,Un-peered and other,SP
329,QLD,CLERMONT HOSPITAL,,310000171,,Y,18,Hospital,,Francis Street,Clermont 4721,-22.828199,147.633042,Australia,Francis Street Clermont 4721 QLD Australia,3,Remote,10,S2,Other small public acute,Yes,No,No,No,E2,Multi-purpose services,SM
330,QLD,MACKAY BASE HOSPITAL,14,310000172,,N,18,Hospital,,475 Bridge Road,Mackay 4740,-21.159674,149.172987,Australia,475 Bridge Road Mackay 4740 QLD Australia,1,Inner Regional,182,L,Large public acute,Yes,Yes,Yes,Yes,A1,Principal referral,LG
331,QLD,MORANBAH HOSPITAL,,310000173,,Y,18,Hospital,,Elliott Street,Moranbah 4744,-22.00292,148.054635,Australia,Elliott Street Moranbah 4744 QLD Australia,2,Outer Regional,12,S2,Other small public acute,Yes,No,No,No,D1,Small regional acute,SM
332,QLD,PROSERPINE HOSPITAL,,310000174,,Y,18,Hospital,,26-34 Taylor Street,Proserpine 4800,-20.399639,148.584305,Australia,26-34 Taylor Street Proserpine 4800 QLD Australia,2,Outer Regional,33,S1,Small public acute with surgery/obstetrics,Yes,No,No,No,C2,Medium (group 2),SM
333,QLD,SARINA HOSPITAL,,310000175,,Y,18,Hospital,,1 Hospital Street,Sarina 4737,-21.421551,149.210552,Australia,1 Hospital Street Sarina 4737 QLD Australia,2,Outer Regional,16,S2,Other small public acute,Yes,No,No,No,D1,Small regional acute,SM
334,QLD,DYSART HOSPITAL,,310000176,,Y,18,Hospital,,Queen Elizabeth Drive,Dysart 4745,-22.588777,148.348705,Australia,Queen Elizabeth Drive Dysart 4745 QLD Australia,2,Outer Regional,9,S2,Other small public acute,Yes,No,No,No,D1,Small regional acute,SM
335,QLD,AYR HOSPITAL,,310000191,,Y,18,Hospital,,2 Chippendale Street,Ayr 4807,-19.56385,147.407761,Australia,2 Chippendale Street Ayr 4807 QLD Australia,2,Outer Regional,32,S1,Small public acute with surgery/obstetrics,Yes,No,No,No,D1,Small regional acute,SM
336,QLD,BOWEN HOSPITAL,,310000192,,Y,18,Hospital,,Gregory Street,Bowen 4805,-20.0109,148.242808,Australia,Gregory Street Bowen 4805 QLD Australia,2,Outer Regional,27,S1,Small public acute with surgery/obstetrics,Yes,No,No,No,D1,Small regional acute,SM
337,QLD,CHARTERS TOWERS HOSPITAL,,310000193,,Y,18,Hospital,,137-139 Gill Street,Charters Towers 4820,-20.07604,146.26416,Australia,137-139 Gill Street Charters Towers 4820 QLD Australia,2,Outer Regional,29,S2,Other small public acute,Yes,No,No,No,D1,Small regional acute,SM
338,QLD,COLLINSVILLE HOSPITAL,,310000194,,Y,18,Hospital,,Garrick Street,Collinsville 4804,-20.546829,147.840325,Australia,Garrick Street Collinsville 4804 QLD Australia,3,Remote,8,S2,Other small public acute,Yes,No,No,No,D3,Small remote acute,SM
339,QLD,HOME HILL HOSPITAL,,310000195,,Y,18,Hospital,,Tenth Avenue,Home Hill 4806,-19.66166,147.415984,Australia,Tenth Avenue Home Hill 4806 QLD Australia,2,Outer Regional,14,VS,Very small public,Yes,No,No,No,G,Un-peered and other,SM
340,QLD,INGHAM HOSPITAL,,310000196,,Y,18,Hospital,,2-16 Mcilwraith Street,Ingham 4850,-18.6531135,146.1652932,Australia,2-16 Mcilwraith Street Ingham 4850 QLD Australia,2,Outer Regional,32,S2,Other small public acute,Yes,No,No,No,D1,Small regional acute,SM
341,QLD,JOYCE PALMER HEALTH SERVICE,,310000197,,Y,18,Hospital,,Beach Road,Palm Island 4816,-18.748755,146.578479,Australia,Beach Road Palm Island 4816 QLD Australia,3,Remote,13,S2,Other small public acute,Yes,No,No,No,D3,Small remote acute,SM
342,QLD,THE TOWNSVILLE HOSPITAL,16,310000200,,N,18,Hospital,,100 Angus Smith Drive,Douglas 4814,-19.321839,146.758135,Australia,100 Angus Smith Drive Douglas 4814 QLD Australia,2,Outer Regional,624,PR,Principal referral,Yes,Yes,Yes,Yes,A1,Principal referral,PR
343,QLD,ROYAL BRISBANE & WOMEN'S HOSPITAL,14,310000201,,N,18,Hospital,,Butterfield Street,Herston 4006,-27.444728,153.020191,Australia,Butterfield Street Herston 4006 QLD Australia,0,Major Cities,1024,PR,Principal referral,Yes,Yes,Yes,Yes,A1,Principal referral,PR
344,QLD,ATHERTON HOSPITAL,,310000211,,Y,18,Hospital,,Corner of Louise and Jack Streets,Atherton 4883,,,Australia,Corner of Louise and Jack Streets Atherton 4883 QLD Australia,2,Outer Regional,44,S1,Small public acute with surgery/obstetrics,Yes,No,Yes,No,C2,Medium (group 2),SM
345,QLD,BABINDA HOSPITAL,,310000212,,Y,18,Hospital,,128 Munro Street,Babinda 4861,-17.3428,145.91893,Australia,128 Munro Street Babinda 4861 QLD Australia,2,Outer Regional,22,S2,Other small public acute,Yes,No,No,No,D2,Small non-acute,SM
346,QLD,BAMAGA HOSPITAL,,310000213,,Y,18,Hospital,,Sagaukaz Street,Bamaga 4876,-10.89593,142.384573,Australia,Sagaukaz Street Bamaga 4876 QLD Australia,4,Very remote,10,S2,Other small public acute,Yes,No,No,No,D2,Small non-acute,SM
347,QLD,CAIRNS BASE HOSPITAL,16,310000214,,N,18,Hospital,,The Esplanade,Cairns 4870,-16.914875,145.772366,Australia,The Esplanade Cairns 4870 QLD Australia,2,Outer Regional,480,L,Large public acute,Yes,Yes,Yes,Yes,A1,Principal referral,LG
348,QLD,CHILLAGOE HOSPITAL,,310000215,,Y,18,Hospital,,21 Hospital Road,Chillagoe 4871,-17.149549,144.5289,Australia,21 Hospital Road Chillagoe 4871 QLD Australia,4,Very remote,0,OT,Outpatient hospital,No,No,No,No,G,Un-peered and other,SP
349,QLD,COOKTOWN HOSPITAL,,310000216,,Y,18,Hospital,,48 Hope Street,Cooktown 4895,-15.47774,145.250412,Australia,48 Hope Street Cooktown 4895 QLD Australia,3,Remote,18,S2,Other small public acute,Yes,No,No,No,E2,Multi-purpose services,SM
350,QLD,CROYDON HOSPITAL,,310000217,,Y,18,Hospital,,Sircom Street,Croydon 4871,-18.207625,142.241006,Australia,Sircom Street Croydon 4871 QLD Australia,4,Very remote,0,OT,Outpatient hospital,No,No,No,No,G,Un-peered and other,SP
351,QLD,FORSAYTH HOSPITAL,,310000218,,Y,18,Hospital,,Fourth Street,Forsayth 4871,-18.590037,143.603759,Australia,Fourth Street Forsayth 4871 QLD Australia,4,Very remote,0,OT,Outpatient hospital,No,No,No,No,G,Un-peered and other,SP
352,QLD,GEORGETOWN HOSPITAL,,310000219,,Y,18,Hospital,,High Street,Georgetown 4871,-18.291599,143.547645,Australia,High Street Georgetown 4871 QLD Australia,4,Very remote,0,OT,Outpatient hospital,No,No,No,No,G,Un-peered and other,SP
353,QLD,GORDONVALE HOSPITAL,,310000220,,Y,18,Hospital,,1-11 Highleigh Road,Gordonvale 4865,-17.087351,145.786163,Australia,1-11 Highleigh Road Gordonvale 4865 QLD Australia,2,Outer Regional,24,N1,Non-acute public-rehabilitation and GEM,Yes,No,No,No,G,Un-peered and other,SP
354,QLD,HERBERTON HOSPITAL,,310000221,,Y,18,Hospital,,23 Grace Street,Herberton 4887,-17.379184,145.3815982,Australia,23 Grace Street Herberton 4887 QLD Australia,2,Outer Regional,38,N1,Non-acute public-rehabilitation and GEM,Yes,No,No,No,G,Un-peered and other,SP
355,QLD,INNISFAIL HOSPITAL,,310000222,,Y,18,Hospital,,87 Rankin Street,Innisfail 4860,-17.519221,146.0295653,Australia,87 Rankin Street Innisfail 4860 QLD Australia,2,Outer Regional,64,S1,Small public acute with surgery/obstetrics,Yes,No,Yes,No,C2,Medium (group 2),SM
356,QLD,MAREEBA HOSPITAL,,310000223,,Y,18,Hospital,,21 Lloyd Street,Mareeba 4880,-16.988806,145.423725,Australia,21 Lloyd Street Mareeba 4880 QLD Australia,2,Outer Regional,48,S1,Small public acute with surgery/obstetrics,Yes,No,No,No,C2,Medium (group 2),SM
357,QLD,MOSSMAN HOSPITAL,,310000224,,Y,18,Hospital,,9 Hospital Street,Mossman 4873,-16.4639,145.368256,Australia,9 Hospital Street Mossman 4873 QLD Australia,2,Outer Regional,24,S1,Small public acute with surgery/obstetrics,Yes,No,No,No,E2,Multi-purpose services,SM
358,QLD,MOUNT GARNET OUTPATIENTS CLINIC,,310000225,,Y,18,Hospital,,2 Galena Street,Mount Garnet 4872,-17.6785076,145.1130733,Australia,2 Galena Street Mount Garnet 4872 QLD Australia,3,Remote,0,OT,Outpatient hospital,No,No,No,No,G,Un-peered and other,SP
359,QLD,THURSDAY ISLAND HOSPITAL,,310000226,,Y,18,Hospital,,163 Douglas Street,Thursday Island 4875,-10.58798,142.211151,Australia,163 Douglas Street Thursday Island 4875 QLD Australia,4,Very remote,38,S1,Small public acute with surgery/obstetrics,Yes,No,No,No,D2,Small non-acute,SM
360,QLD,TULLY HOSPITAL,,310000227,,Y,18,Hospital,,Bryant Street,Tully 4854,-17.935621,145.92292,Australia,Bryant Street Tully 4854 QLD Australia,2,Outer Regional,20,S1,Small public acute with surgery/obstetrics,Yes,No,No,No,D1,Small regional acute,SM
361,QLD,WEIPA HOSPITAL,,310000228,,Y,18,Hospital,,Lot 407 John Evans Drive,Weipa 4874,-12.654164,141.858277,Australia,Lot 407 John Evans Drive Weipa 4874 QLD Australia,4,Very remote,14,S1,Small public acute with surgery/obstetrics,Yes,No,No,No,D3,Small remote acute,SM
362,QLD,YARRABAH HOSPITAL,,310000229,,Y,18,Hospital,,1 Bukki Road,Yarrabah 4871,-16.9076405,145.8651123,Australia,1 Bukki Road Yarrabah 4871 QLD Australia,2,Outer Regional,0,S2,Other small public acute,Yes,No,No,No,D1,Small regional acute,SM
363,QLD,AURUKUN PRIMARY HEALTH CARE CENTRE,,310000230,,Y,18,Hospital,,Kang Kang Road,Aurukun 4871,-13.354703,141.724802,Australia,Kang Kang Road Aurukun 4871 QLD Australia,4,Very remote,1,OT,Outpatient hospital,Yes,No,No,No,G,Un-peered and other,SP
364,QLD,HOPEVALE MEDICAL CENTRE,,310000231,,Y,18,Hospital,,Aerodrome Road,Hope Vale 4895,-15.293416,145.106072,Australia,Aerodrome Road Hope Vale 4895 QLD Australia,3,Remote,1,VS,Very small public,Yes,No,No,No,G,Un-peered and other,SM
365,QLD,WUJAL WUJAL COMMUNITY HOSPITAL,,310000232,,Y,18,Hospital,,100 Douglas Street,Wujal Wujal 4895,-15.945176,145.316638,Australia,100 Douglas Street Wujal Wujal 4895 QLD Australia,3,Remote,1,VS,Very small public,Yes,No,No,No,G,Un-peered and other,SM
366,QLD,LOCKHART RIVER PRIMARY HEALTH CARE CENTRE,,310000233,,Y,18,Hospital,,Paytam Street,Lockhart River 4871,-12.786663,143.344306,Australia,Paytam Street Lockhart River 4871 QLD Australia,4,Very remote,1,VS,Very small public,Yes,No,No,No,G,Un-peered and other,SM
367,QLD,BURKETOWN HEALTH CLINIC,,310000241,,Y,18,Hospital,,Hospital Road,Burketown 4830,-17.857939,138.947606,Australia,Hospital Road Burketown 4830 QLD Australia,4,Very remote,1,VS,Very small public,Yes,No,No,No,G,Un-peered and other,SM
368,QLD,CAMOOWEAL HEALTH CLINIC,,310000242,,Y,18,Hospital,,Nowranie Street,Camooweal 4828,-19.919411,138.120252,Australia,Nowranie Street Camooweal 4828 QLD Australia,4,Very remote,3,VS,Very small public,Yes,No,No,No,G,Un-peered and other,SM
369,QLD,CLONCURRY HOSPITAL,,310000243,,Y,18,Hospital,,1 Musgrave Street,Cloncurry 4824,-20.703367,140.52699,Australia,1 Musgrave Street Cloncurry 4824 QLD Australia,3,Remote,25,S2,Other small public acute,Yes,No,No,No,D3,Small remote acute,SM
370,QLD,HUGHENDEN HOSPITAL,,310000244,,Y,18,Hospital,,14 Richmond Hill Drive,Hughenden 4821,-20.843398,144.194006,Australia,14 Richmond Hill Drive Hughenden 4821 QLD Australia,4,Very remote,15,S2,Other small public acute,Yes,No,No,No,D2,Small non-acute,SM
371,QLD,JULIA CREEK HOSPITAL,,310000245,,Y,18,Hospital,,1 Burke Street,Julia Creek 4823,-20.655979,141.750244,Australia,1 Burke Street Julia Creek 4823 QLD Australia,4,Very remote,10,S2,Other small public acute,Yes,No,No,No,G,Un-peered and other,SM
372,QLD,MOUNT ISA HOSPITAL,20,310000246,,N,18,Hospital,,30 Camooweal Street,Mount Isa 4825,-20.723084,139.493519,Australia,30 Camooweal Street Mount Isa 4825 QLD Australia,3,Remote,86,M,Medium public acute,Yes,Yes,Yes,Yes,B2,Large regional and remote,LG
373,QLD,NORMANTON HOSPITAL,,310000247,,Y,18,Hospital,,Brown Street,Normanton 4890,-17.671507,141.080517,Australia,Brown Street Normanton 4890 QLD Australia,4,Very remote,14,S2,Other small public acute,Yes,No,No,No,D3,Small remote acute,SM
374,QLD,RICHMOND HOSPITAL,,310000248,,Y,18,Hospital,,Gallagher Drive,Richmond 4822,-25.001621,151.93177,Australia,Gallagher Drive Richmond 4822 QLD Australia,4,Very remote,10,VS,Very small public,Yes,No,No,No,G,Un-peered and other,SM
375,QLD,MORNINGTON ISLAND HOSPITAL,,310000249,,Y,18,Hospital,,Lardyl Street,Mornington Island 4871,-16.665637,139.186524,Australia,Lardyl Street Mornington Island 4871 QLD Australia,4,Very remote,11,S2,Other small public acute,Yes,No,No,No,D3,Small remote acute,SM
376,QLD,KARUMBA HEALTH CLINIC,,310000250,,Y,18,Hospital,,160 Walker Street,Karumba 4891,-17.48509,140.84665,Australia,160 Walker Street Karumba 4891 QLD Australia,4,Very remote,1,VS,Very small public,Yes,No,No,No,G,Un-peered and other,SM
377,QLD,DAJARRA HEALTH CLINIC,,310000251,,Y,18,Hospital,,12 Matheson Street,Dajarra 4825,-21.694518,139.513727,Australia,12 Matheson Street Dajarra 4825 QLD Australia,4,Very remote,1,VS,Very small public,Yes,No,No,No,G,Un-peered and other,SM
378,QLD,DOOMADGEE HOSPITAL,,310000252,,Y,18,Hospital,,Sharpe Street,Doomadgee 4830,-17.942599,138.824577,Australia,Sharpe Street Doomadgee 4830 QLD Australia,4,Very remote,7,S2,Other small public acute,Yes,No,No,No,D3,Small remote acute,SM
379,QLD,KOWANYAMA PRIMARY HEALTH CARE CENTRE,,310000253,,Y,18,Hospital,,Carrington Street,Kowanyama 4871,-15.476058,141.746687,Australia,Carrington Street Kowanyama 4871 QLD Australia,4,Very remote,1,VS,Very small public,Yes,No,No,No,G,Un-peered and other,SM
380,QLD,PORMPURAAW PRIMARY HEALTH CARE CENTRE,,310000254,,Y,18,Hospital,,Korka Street,Pormpuraaw 4871,-14.899592,141.621991,Australia,Korka Street Pormpuraaw 4871 QLD Australia,4,Very remote,1,VS,Very small public,Yes,No,No,No,G,Un-peered and other,SM
381,QLD,COEN PRIMARY HEALTH CARE CENTRE,,310000255,,Y,18,Hospital,,Armbrust Street,Coen 4871,-13.944834,143.200996,Australia,Armbrust Street Coen 4871 QLD Australia,4,Very remote,1,VS,Very small public,No,No,No,No,G,Un-peered and other,SM
382,QLD,CAPELLA OUTPATIENTS CLINIC,,310000905,,Y,18,Hospital,,Main Street,Bollon 4488,-28.031544,147.4784,Australia,Main Street Bollon 4488 QLD Australia,3,Remote,0,OT,Outpatient hospital,No,No,No,No,G,Un-peered and other,SP
383,QLD,CRACOW OUTPATIENTS CLINIC,,310000907,,Y,18,Hospital,,Slider Street,Capella 4702,-23.080237,148.023022,Australia,Slider Street Capella 4702 QLD Australia,3,Remote,0,OT,Outpatient hospital,No,No,No,No,G,Un-peered and other,SP
384,QLD,DIMBULAH OUTPATIENTS CLINIC,,310000908,,Y,18,Hospital,,Fourth Avenue,Cracow 4719,-25.293859,150.297583,Australia,Fourth Avenue Cracow 4719 QLD Australia,2,Outer Regional,0,OT,Outpatient hospital,No,No,No,No,G,Un-peered and other,SP
385,QLD,DUARINGA OUTPATIENTS CLINIC,,310000910,,Y,18,Hospital,,3-5 Stephens Street,Dimbulah 4872,-17.146669,145.106781,Australia,3-5 Stephens Street Dimbulah 4872 QLD Australia,3,Remote,0,OT,Outpatient hospital,No,No,No,No,G,Un-peered and other,SP
386,QLD,GLENMORGAN OUTPATIENTS CLINIC,,310000912,,Y,18,Hospital,,Corner of Elizabeth and William Streets,Duaringa 4712,,,Australia,Corner of Elizabeth and William Streets Duaringa 4712 QLD Australia,3,Remote,0,OT,Outpatient hospital,No,No,No,No,G,Un-peered and other,SP
387,QLD,LAURA PRIMARY HEALTH CARE CENTRE,,310000915,,Y,18,Hospital,,Queensland Country Women's Association Hall,Glenmorgan 4423,44.64357,-64.017433,Australia,Queensland Country Women's Association Hall Glenmorgan 4423 QLD Australia,4,Very remote,1,VS,Very small public,Yes,No,No,No,G,Un-peered and other,SM
388,QLD,MAGNETIC ISLAND HEALTH SERVICE CENTRE,,310000916,,Y,18,Hospital,,1 Gladwell Street,Laura 4871,-38.38224,144.798935,Australia,1 Gladwell Street Laura 4871 QLD Australia,2,Outer Regional,0,OT,Outpatient hospital,No,No,No,No,G,Un-peered and other,SP
389,QLD,MALANDA OUTPATIENTS CLINIC,,310000917,,Y,18,Hospital,,76 Sooning Street,Nelly Bay 4819,-19.15745,146.849854,Australia,76 Sooning Street Nelly Bay 4819 QLD Australia,2,Outer Regional,0,OT,Outpatient hospital,No,No,No,No,G,Un-peered and other,SP
390,QLD,MEANDARRA OUTPATIENTS CLINIC,,310000919,,Y,18,Hospital,,3/15 Catherine Street,Malanda 4885,-17.35387,145.593994,Australia,3/15 Catherine Street Malanda 4885 QLD Australia,3,Remote,0,OT,Outpatient hospital,No,No,No,No,G,Un-peered and other,SP
391,QLD,MILLAA MILLAA OUTPATIENTS CLINIC,,310000920,,Y,18,Hospital,,Gibson Street,Meandarra 4422,-27.326668,149.881207,Australia,Gibson Street Meandarra 4422 QLD Australia,2,Outer Regional,0,OT,Outpatient hospital,No,No,No,No,G,Un-peered and other,SP
392,QLD,MORVEN OUTPATIENTS CLINIC,,310000921,,Y,18,Hospital,,45 Palm Avenue,Millaa Millaa 4886,-17.51446,145.608063,Australia,45 Palm Avenue Millaa Millaa 4886 QLD Australia,4,Very remote,0,OT,Outpatient hospital,No,No,No,No,G,Un-peered and other,SP
393,QLD,RAVENSHOE OUTPATIENTS CLINIC,,310000924,,Y,18,Hospital,,Warrego Highway,Morven 4468,-26.411648,147.103697,Australia,Warrego Highway Morven 4468 QLD Australia,2,Outer Regional,0,OT,Outpatient hospital,No,No,No,No,G,Un-peered and other,SP
394,QLD,MALAKOOLA PRIMARY HEALTH CARE CENTRE,,310000928,,Y,18,Hospital,,27 Kuradilla Street,Ravenshoe 4888,-17.607123,145.482074,Australia,27 Kuradilla Street Ravenshoe 4888 QLD Australia,4,Very remote,1,OT,Outpatient hospital,Yes,No,No,No,G,Un-peered and other,SP
395,QLD,ROBINA HOSPITAL,26,310000934,,N,18,Hospital,,313 Moun-Ding Street,Napranum 4874,-12.684401,141.888982,Australia,313 Moun-Ding Street Napranum 4874 QLD Australia,0,Major Cities,454,M,Medium public acute,Yes,Yes,Yes,No,A1,Principal referral,LG
396,QLD,MOONIE OUTPATIENTS CLINIC,,310000935,,Y,18,Hospital,,Moonie Highway,Moonie 4406,-27.717177,150.369754,Australia,Moonie Highway Moonie 4406 QLD Australia,2,Outer Regional,0,OT,Outpatient hospital,No,No,No,No,G,Un-peered and other,SP
397,QLD,ISLAND MEDICAL SERVICE,,310000939,,Y,18,Hospital,,Victoria Parade,Thursday Island,-10.585121,142.220295,Australia,Victoria Parade Thursday Island QLD Australia,4,Very remote,0,OT,Outpatient hospital,No,No,No,No,G,Un-peered and other,SP
398,QLD,GEMFIELDS OUTPATIENTS CLINIC,,310000940,,Y,18,Hospital,,984 Rubyvale Road,Sapphire 4702,,,Australia,984 Rubyvale Road Sapphire 4702 QLD Australia,3,Remote,0,OT,Outpatient hospital,No,No,No,No,G,Un-peered and other,SP
399,QLD,MAPOON PRIMARY HEALTH CARE CENTRE,,310000965,,Y,18,Hospital,,Main Street,Mapoon 4874,-12.15903,142.81045,Australia,Main Street Mapoon 4874 QLD Australia,4,Very remote,1,OT,Outpatient hospital,No,No,No,No,G,Un-peered and other,SP
400,QLD,BAILLIE HENDERSON HOSPITAL,,340000701,,Y,18,Hospital,,Corner of Hogg and Tor Streets,Toowoomba 4350,,,Australia,Corner of Hogg and Tor Streets Toowoomba 4350 QLD Australia,1,Inner Regional,180,Ps,Psychiatric public,Yes,No,No,No,F,Psychiatric,PS
401,QLD,CHARTERS TOWERS REHABILITATION UNIT,,340000703,,Y,18,Hospital,,35 Gladstone Road,Charters Towers 4820,-20.075896,146.279307,Australia,35 Gladstone Road Charters Towers 4820 QLD Australia,2,Outer Regional,27,Ps,Psychiatric public,Yes,No,No,No,F,Psychiatric,PS
